{"v": 2, "generated": "2026-07-06", "sheets": {"aldborough-st-john-north": {"img": "aldborough-st-john-north.625942c71c.webp", "bytes": 186670, "w": 1653, "h": 2339, "village": "Aldborough St John", "district": "Richmondshire", "clat": 54.4956667, "clng": -1.6844785}, "aldborough-st-john-s": {"img": "aldborough-st-john-s.666abf21b3.webp", "bytes": 230648, "w": 2339, "h": 1653, "village": "Aldborough St John", "district": "Richmondshire", "clat": 54.4956667, "clng": -1.6844785}, "arrathorne": {"img": "arrathorne.99de54164c.webp", "bytes": 99328, "w": 2339, "h": 1653, "village": "Arrathorne", "district": "Richmondshire", "clat": 54.3346411, "clng": -1.691727}, "barton-north": {"img": "barton-north.3021f3646e.webp", "bytes": 217200, "w": 2339, "h": 1653, "village": "Barton", "district": "Richmondshire", "clat": 54.4755915, "clng": -1.6464814}, "barton-south": {"img": "barton-south.cc24dbc0d3.webp", "bytes": 236950, "w": 2339, "h": 1653, "village": "Barton", "district": "Richmondshire", "clat": 54.4755915, "clng": -1.6464814}, "bolton-on-swale": {"img": "bolton-on-swale.e49fb6247f.webp", "bytes": 145788, "w": 1653, "h": 2339, "village": "Bolton-on-Swale", "district": "Richmondshire", "clat": 54.3876007, "clng": -1.6135482}, "brompton-on-swale-n": {"img": "brompton-on-swale-n.27a92dfa2a.webp", "bytes": 189326, "w": 2339, "h": 1653, "village": "Brompton-on-Swale", "district": "Richmondshire", "clat": 54.4051903, "clng": -1.6630365}, "brompton-on-swale-s": {"img": "brompton-on-swale-s.aca8bdcaf6.webp", "bytes": 216470, "w": 2339, "h": 1653, "village": "Brompton-on-Swale", "district": "Richmondshire", "clat": 54.4051903, "clng": -1.6630365}, "caldwell": {"img": "caldwell.2a19de23d0.webp", "bytes": 142002, "w": 2339, "h": 1653, "village": "Caldwell", "district": "Richmondshire", "clat": 54.5166552, "clng": -1.7524142}, "carlton": {"img": "carlton.0758bca525.webp", "bytes": 76010, "w": 2339, "h": 1653, "village": "Carlton", "district": "Richmondshire", "clat": 53.7147183, "clng": -1.0174965}, "catterick-village-c": {"img": "catterick-village-c.5bdf663b74.webp", "bytes": 240086, "w": 2339, "h": 1653, "village": "Catterick Village", "district": "Richmondshire", "clat": 54.377013, "clng": -1.6308424}, "catterick-village-ne": {"img": "catterick-village-ne.765b679a67.webp", "bytes": 212020, "w": 2339, "h": 1653, "village": "Catterick Village", "district": "Richmondshire", "clat": 54.377013, "clng": -1.6308424}, "catterick-village-nw": {"img": "catterick-village-nw.9b68d6d1a5.webp", "bytes": 260312, "w": 2339, "h": 1653, "village": "Catterick Village", "district": "Richmondshire", "clat": 54.377013, "clng": -1.6308424}, "catterick-village-s": {"img": "catterick-village-s.5d627849c4.webp", "bytes": 188686, "w": 2339, "h": 1653, "village": "Catterick Village", "district": "Richmondshire", "clat": 54.377013, "clng": -1.6308424}, "cleasby": {"img": "cleasby.1c138ef42e.webp", "bytes": 155608, "w": 2339, "h": 1653, "village": "Cleasby", "district": "Richmondshire", "clat": 54.5123357, "clng": -1.6139111}, "constable-burton": {"img": "constable-burton.491c09d94d.webp", "bytes": 137674, "w": 2339, "h": 1653, "village": "Constable Burton", "district": "Richmondshire", "clat": 54.3129765, "clng": -1.7518237}, "croft-on-tees": {"img": "croft-on-tees.79560d683c.webp", "bytes": 191140, "w": 2339, "h": 1653, "village": "Croft-on-Tees", "district": "Richmondshire", "clat": 54.4835138, "clng": -1.5558252}, "dalton": {"img": "dalton.944aa9c9ed.webp", "bytes": 179832, "w": 2339, "h": 1653, "village": "Dalton", "district": "Richmondshire", "clat": 54.1855566, "clng": -1.3320383}, "dalton-on-tees": {"img": "dalton-on-tees.f1c6d68c53.webp", "bytes": 190032, "w": 1653, "h": 2339, "village": "Dalton-on-Tees", "district": "Richmondshire", "clat": 54.4664517, "clng": -1.54328}, "east-appleton": {"img": "east-appleton.756a155999.webp", "bytes": 53118, "w": 2339, "h": 1653, "village": "East Appleton", "district": "Richmondshire", "clat": 54.3573529, "clng": -1.6350405}, "east-hauxwell": {"img": "east-hauxwell.92aa79c3de.webp", "bytes": 105890, "w": 1653, "h": 2339, "village": "East Hauxwell", "district": "Richmondshire", "clat": 54.3392402, "clng": -1.7438583}, "east-layton": {"img": "east-layton.add3143770.webp", "bytes": 121686, "w": 2339, "h": 1653, "village": "East Layton", "district": "Richmondshire", "clat": 54.484333, "clng": -1.7487337}, "ellerton": {"img": "ellerton.974b1d706c.webp", "bytes": 111314, "w": 1653, "h": 2339, "village": "Ellerton", "district": "Richmondshire", "clat": 54.3758314, "clng": -1.6067815}, "eppleby": {"img": "eppleby.d7815f3d97.webp", "bytes": 202198, "w": 1653, "h": 2339, "village": "Eppleby", "district": "Richmondshire", "clat": 54.515036, "clng": -1.7267605}, "eryholme": {"img": "eryholme.3c49953b6f.webp", "bytes": 89212, "w": 1653, "h": 2339, "village": "Eryholme", "district": "Richmondshire", "clat": 54.4669136, "clng": -1.4951651}, "forcett": {"img": "forcett.908204f1f9.webp", "bytes": 118268, "w": 2339, "h": 1653, "village": "Forcett", "district": "Richmondshire", "clat": 54.5020232, "clng": -1.738156}, "forest": {"img": "forest.3add82f8b0.webp", "bytes": 71820, "w": 2339, "h": 1653, "village": "Forest", "district": "Richmondshire", "clat": 54.3990974, "clng": -1.575472}, "gayles": {"img": "gayles.e21f5dd61c.webp", "bytes": 153940, "w": 2339, "h": 1653, "village": "Gayles", "district": "Richmondshire", "clat": 54.453692, "clng": -1.8284628}, "gilling-west": {"img": "gilling-west.30660bf13c.webp", "bytes": 207318, "w": 1653, "h": 2339, "village": "Gilling West", "district": "Richmondshire", "clat": 54.4415296, "clng": -1.7189712}, "hartforth": {"img": "hartforth.617b393f4a.webp", "bytes": 95796, "w": 2339, "h": 1653, "village": "Hartforth", "district": "Richmondshire", "clat": 54.4515058, "clng": -1.7352998}, "hornby": {"img": "hornby.6785621398.webp", "bytes": 92568, "w": 2339, "h": 1653, "village": "Hornby", "district": "Richmondshire", "clat": 54.4443469, "clng": -1.4408688}, "hunton-east": {"img": "hunton-east.fec7bbeecc.webp", "bytes": 241866, "w": 1653, "h": 2339, "village": "Hunton", "district": "Richmondshire", "clat": 54.3361865, "clng": -1.7123225}, "hunton-west": {"img": "hunton-west.b301980a78.webp", "bytes": 121732, "w": 2339, "h": 1653, "village": "Hunton", "district": "Richmondshire", "clat": 54.3361865, "clng": -1.7123225}, "kirby-hill": {"img": "kirby-hill.fbc317c04e.webp", "bytes": 113720, "w": 2339, "h": 1653, "village": "Kirby Hill", "district": "Richmondshire", "clat": 54.4520689, "clng": -1.7903374}, "manfield": {"img": "manfield.d805b23d12.webp", "bytes": 189706, "w": 2339, "h": 1653, "village": "Manfield", "district": "Richmondshire", "clat": 54.5118512, "clng": -1.6456227}, "melsonby-north": {"img": "melsonby-north.eea6019afc.webp", "bytes": 201658, "w": 2339, "h": 1653, "village": "Melsonby", "district": "Richmondshire", "clat": 54.470982, "clng": -1.7017352}, "melsonby-south-east": {"img": "melsonby-south-east.2d764c1efb.webp", "bytes": 199700, "w": 1653, "h": 2339, "village": "Melsonby", "district": "Richmondshire", "clat": 54.470982, "clng": -1.7017352}, "melsonby-south-west": {"img": "melsonby-south-west.43476baada.webp", "bytes": 148650, "w": 1653, "h": 2339, "village": "Melsonby", "district": "Richmondshire", "clat": 54.470982, "clng": -1.7017352}, "middleton-tyas-central": {"img": "middleton-tyas-central.cadd3c2716.webp", "bytes": 234304, "w": 2339, "h": 1653, "village": "Middleton Tyas", "district": "Richmondshire", "clat": 54.4473306, "clng": -1.6513539}, "middleton-tyas-east": {"img": "middleton-tyas-east.276f194c3b.webp", "bytes": 151558, "w": 2339, "h": 1653, "village": "Middleton Tyas", "district": "Richmondshire", "clat": 54.4473306, "clng": -1.6513539}, "middleton-tyas-west": {"img": "middleton-tyas-west.8ad9aca463.webp", "bytes": 159454, "w": 2339, "h": 1653, "village": "Middleton Tyas", "district": "Richmondshire", "clat": 54.4473306, "clng": -1.6513539}, "moulton": {"img": "moulton.563a50c1d2.webp", "bytes": 147378, "w": 1653, "h": 2339, "village": "Moulton", "district": "Richmondshire", "clat": 54.4294607, "clng": -1.6386458}, "newsham": {"img": "newsham.379d0f4144.webp", "bytes": 187170, "w": 2339, "h": 1653, "village": "Newsham", "district": "Richmondshire", "clat": 54.4779065, "clng": -1.8565597}, "newton-morrell": {"img": "newton-morrell.f173fbb6f9.webp", "bytes": 105648, "w": 2339, "h": 1653, "village": "Newton Morrell", "district": "Richmondshire", "clat": 54.4791313, "clng": -1.6312198}, "north-cowton": {"img": "north-cowton.0d2ce90f6d.webp", "bytes": 223742, "w": 2339, "h": 1653, "village": "North Cowton", "district": "Richmondshire", "clat": 54.4323453, "clng": -1.567718}, "patrick-brompton": {"img": "patrick-brompton.ae12403ef6.webp", "bytes": 150114, "w": 2339, "h": 1653, "village": "Patrick Brompton", "district": "Richmondshire", "clat": 54.3128965, "clng": -1.6600381}, "ravensworth": {"img": "ravensworth.5629ba7abb.webp", "bytes": 192838, "w": 1653, "h": 2339, "village": "Ravensworth", "district": "Richmondshire", "clat": 54.4612901, "clng": -1.7800384}, "scorton-northwest": {"img": "scorton-northwest.eee61fb045.webp", "bytes": 228102, "w": 2339, "h": 1653, "village": "Scorton", "district": "Richmondshire", "clat": 54.405589, "clng": -1.6081716}, "scorton-southeast": {"img": "scorton-southeast.67054442b5.webp", "bytes": 223610, "w": 1653, "h": 2339, "village": "Scorton", "district": "Richmondshire", "clat": 54.405589, "clng": -1.6081716}, "skeeby": {"img": "skeeby.da1c8a25d0.webp", "bytes": 202426, "w": 2339, "h": 1653, "village": "Skeeby", "district": "Richmondshire", "clat": 54.4179728, "clng": -1.6932493}, "stanwick-st-john": {"img": "stanwick-st-john.84337a0c78.webp", "bytes": 99890, "w": 2339, "h": 1653, "village": "Stanwick St John", "district": "Richmondshire", "clat": 54.5043353, "clng": -1.7068254}, "stapleton": {"img": "stapleton.7ee97abb99.webp", "bytes": 483976, "w": 1588, "h": 2306, "village": "Stapleton", "district": "Richmondshire", "clat": 54.5035106, "clng": -1.594392}, "tunstall": {"img": "tunstall.a624b79f19.webp", "bytes": 195258, "w": 2339, "h": 1653, "village": "Tunstall", "district": "Richmondshire", "clat": 54.3597412, "clng": -1.6729773}, "uckerby": {"img": "uckerby.1aa396d47e.webp", "bytes": 85358, "w": 2339, "h": 1653, "village": "Uckerby", "district": "Richmondshire", "clat": 54.4153241, "clng": -1.6222187}, "west-layton": {"img": "west-layton.61001d466e.webp", "bytes": 93192, "w": 2339, "h": 1653, "village": "West Layton", "district": "Richmondshire", "clat": 54.4852082, "clng": -1.7804472}, "whashton": {"img": "whashton.57a46a51b5.webp", "bytes": 115182, "w": 2339, "h": 1653, "village": "Whashton", "district": "Richmondshire", "clat": 54.4502644, "clng": -1.7687063}, "angram": {"img": "angram.8ed12e2f8b.webp", "bytes": 78574, "w": 1653, "h": 2339, "village": "Angram", "district": "Swaledale and Arkengarthdale", "clat": 53.9311663, "clng": -1.2096078}, "arkle-town": {"img": "arkle-town.faa844bf60.webp", "bytes": 75694, "w": 2339, "h": 1653, "village": "Arkle Town", "district": "Swaledale and Arkengarthdale", "clat": 54.4131956, "clng": -1.9895941}, "blades": {"img": "blades.6eed00a786.webp", "bytes": 92956, "w": 2339, "h": 1653, "village": "Blades", "district": "Swaledale and Arkengarthdale", "clat": 54.3819827, "clng": -2.0319566}, "booze": {"img": "booze.c8544eab31.webp", "bytes": 63276, "w": 2339, "h": 1653, "village": "Booze", "district": "Swaledale and Arkengarthdale", "clat": 54.4176184, "clng": -1.9788303}, "crackpot": {"img": "crackpot.dd1eeed91f.webp", "bytes": 61764, "w": 1653, "h": 2339, "village": "Crackpot", "district": "Swaledale and Arkengarthdale", "clat": 54.3651878, "clng": -2.0427483}, "downholme": {"img": "downholme.00c942d1d9.webp", "bytes": 109540, "w": 2339, "h": 1653, "village": "Downholme", "district": "Swaledale and Arkengarthdale", "clat": 54.3766895, "clng": -1.8270588}, "feetham": {"img": "feetham.3654975c12.webp", "bytes": 137008, "w": 2339, "h": 1653, "village": "Feetham", "district": "Swaledale and Arkengarthdale", "clat": 54.3812472, "clng": -2.0214507}, "fremington": {"img": "fremington.c73388312e.webp", "bytes": 144030, "w": 2339, "h": 1653, "village": "Fremington", "district": "Swaledale and Arkengarthdale", "clat": 54.3856499, "clng": -1.9302838}, "grinton": {"img": "grinton.f4a2d09c30.webp", "bytes": 145838, "w": 1653, "h": 2339, "village": "Grinton", "district": "Swaledale and Arkengarthdale", "clat": 54.3641823, "clng": -1.9960017}, "gunnerside": {"img": "gunnerside.352253d752.webp", "bytes": 201266, "w": 2339, "h": 1653, "village": "Gunnerside", "district": "Swaledale and Arkengarthdale", "clat": 54.3791973, "clng": -2.0772344}, "healaugh": {"img": "healaugh.39926346d9.webp", "bytes": 119916, "w": 2339, "h": 1653, "village": "Healaugh", "district": "Swaledale and Arkengarthdale", "clat": 54.3871042, "clng": -1.9750164}, "hudswell": {"img": "hudswell.75fc4428b6.webp", "bytes": 183626, "w": 2339, "h": 1653, "village": "Hudswell", "district": "Swaledale and Arkengarthdale", "clat": 54.3971067, "clng": -1.7773285}, "ivelet": {"img": "ivelet.4ed78c7078.webp", "bytes": 89556, "w": 2339, "h": 1653, "village": "Ivelet", "district": "Swaledale and Arkengarthdale", "clat": 54.3774549, "clng": -2.1000335}, "kearton": {"img": "kearton.0d42358a33.webp", "bytes": 55934, "w": 2339, "h": 1653, "village": "Kearton", "district": "Swaledale and Arkengarthdale", "clat": 54.3865255, "clng": -2.0076438}, "keld": {"img": "keld.35970ca66c.webp", "bytes": 107166, "w": 1653, "h": 2339, "village": "Keld", "district": "Swaledale and Arkengarthdale", "clat": 54.405855, "clng": -2.1664319}, "langthwaite": {"img": "langthwaite.adf51cff69.webp", "bytes": 136218, "w": 2339, "h": 1653, "village": "Langthwaite", "district": "Swaledale and Arkengarthdale", "clat": 54.4178141, "clng": -1.9937274}, "low-row": {"img": "low-row.58854e1bab.webp", "bytes": 141530, "w": 2339, "h": 1653, "village": "Low Row", "district": "Swaledale and Arkengarthdale", "clat": 54.3789071, "clng": -2.0257464}, "marrick": {"img": "marrick.86e8550bd3.webp", "bytes": 99268, "w": 2339, "h": 1653, "village": "Marrick", "district": "Swaledale and Arkengarthdale", "clat": 54.3801778, "clng": -1.8807237}, "marske": {"img": "marske.9d33ddf344.webp", "bytes": 128268, "w": 2339, "h": 1653, "village": "Marske", "district": "Swaledale and Arkengarthdale", "clat": 54.3992322, "clng": -1.8414019}, "muker": {"img": "muker.c5f663c40d.webp", "bytes": 150146, "w": 2339, "h": 1653, "village": "Muker", "district": "Swaledale and Arkengarthdale", "clat": 54.3767955, "clng": -2.1396541}, "reeth-east": {"img": "reeth-east.9775cad8e4.webp", "bytes": 257590, "w": 1653, "h": 2339, "village": "Reeth", "district": "Swaledale and Arkengarthdale", "clat": 54.3892681, "clng": -1.942143}, "reeth-north-west": {"img": "reeth-north-west.72a74c629a.webp", "bytes": 148320, "w": 2339, "h": 1653, "village": "Reeth", "district": "Swaledale and Arkengarthdale", "clat": 54.3892681, "clng": -1.942143}, "reeth-south-west": {"img": "reeth-south-west.ded2eee2a2.webp", "bytes": 229954, "w": 1653, "h": 2339, "village": "Reeth", "district": "Swaledale and Arkengarthdale", "clat": 54.3892681, "clng": -1.942143}, "thwaite": {"img": "thwaite.975b858bad.webp", "bytes": 143812, "w": 1653, "h": 2339, "village": "Thwaite", "district": "Swaledale and Arkengarthdale", "clat": 54.3792187, "clng": -2.1678759}, "bagby": {"img": "bagby.4e9868407f.webp", "bytes": 256660, "w": 2339, "h": 1653, "village": "Bagby", "district": "Hambleton (East)", "clat": 54.2168672, "clng": -1.3000881}, "balk": {"img": "balk.751c90078b.webp", "bytes": 93454, "w": 2339, "h": 1653, "village": "Balk", "district": "Hambleton (East)", "clat": 54.2214293, "clng": -1.2723805}, "battersby": {"img": "battersby.0d975a7aad.webp", "bytes": 118420, "w": 2339, "h": 1653, "village": "Battersby", "district": "Hambleton (East)", "clat": 54.4575551, "clng": -1.0933566}, "boltby": {"img": "boltby.5dcdfd9b96.webp", "bytes": 133848, "w": 2339, "h": 1653, "village": "Boltby", "district": "Hambleton (East)", "clat": 54.2727109, "clng": -1.2482836}, "brandsby": {"img": "brandsby.0e92449f29.webp", "bytes": 127366, "w": 2339, "h": 1653, "village": "Brandsby", "district": "Hambleton (East)", "clat": 54.1439901, "clng": -1.0992761}, "carlton-husthwaite": {"img": "carlton-husthwaite.7c0dfa85fd.webp", "bytes": 156086, "w": 2339, "h": 1653, "village": "Carlton Husthwaite", "district": "Hambleton (East)", "clat": 54.1835489, "clng": -1.2381799}, "carlton-in-cleveland": {"img": "carlton-in-cleveland.6cd77a15f5.webp", "bytes": 233984, "w": 1653, "h": 2339, "village": "Carlton in Cleveland", "district": "Hambleton (East)", "clat": 54.432078, "clng": -1.2177655}, "chop-gate": {"img": "chop-gate.f3d2e7533b.webp", "bytes": 112068, "w": 1653, "h": 2339, "village": "Chop Gate", "district": "Hambleton (East)", "clat": 54.3905559, "clng": -1.140299}, "cowesby": {"img": "cowesby.3f50ed6361.webp", "bytes": 101800, "w": 2339, "h": 1653, "village": "Cowesby", "district": "Hambleton (East)", "clat": 54.3024366, "clng": -1.2860563}, "coxwold": {"img": "coxwold.9ebf27a59a.webp", "bytes": 181190, "w": 2339, "h": 1653, "village": "Coxwold", "district": "Hambleton (East)", "clat": 54.1873095, "clng": -1.1818002}, "crathorne": {"img": "crathorne.8eafa4a1bb.webp", "bytes": 172884, "w": 1653, "h": 2339, "village": "Crathorne", "district": "Hambleton (East)", "clat": 54.460403, "clng": -1.3212063}, "crayke": {"img": "crayke.eeb4eb9b91.webp", "bytes": 244654, "w": 2339, "h": 1653, "village": "Crayke", "district": "Hambleton (East)", "clat": 54.1273993, "clng": -1.1423469}, "easby": {"img": "easby.e0481743f6.webp", "bytes": 93986, "w": 2339, "h": 1653, "village": "Easby", "district": "Hambleton (East)", "clat": 54.4697882, "clng": -1.1103575}, "faceby": {"img": "faceby.bbaa424d80.webp", "bytes": 183012, "w": 2339, "h": 1653, "village": "Faceby", "district": "Hambleton (East)", "clat": 54.4213977, "clng": -1.2369992}, "fangdale-beck": {"img": "fangdale-beck.ee9995a883.webp", "bytes": 69802, "w": 2339, "h": 1653, "village": "Fangdale Beck", "district": "Hambleton (East)", "clat": 54.3443322, "clng": -1.1256095}, "farlington": {"img": "farlington.27aebb1f67.webp", "bytes": 155360, "w": 2339, "h": 1653, "village": "Farlington", "district": "Hambleton (East)", "clat": 54.1019287, "clng": -1.0612258}, "felixkirk": {"img": "felixkirk.b100824051.webp", "bytes": 123476, "w": 2339, "h": 1653, "village": "Felixkirk", "district": "Hambleton (East)", "clat": 54.255616, "clng": -1.2836819}, "great-broughton-north": {"img": "great-broughton-north.61439ed80a.webp", "bytes": 212814, "w": 2339, "h": 1653, "village": "Great Broughton", "district": "Hambleton (East)", "clat": 54.44935, "clng": -1.1576543}, "great-broughton-south": {"img": "great-broughton-south.1ee5d44074.webp", "bytes": 188372, "w": 1653, "h": 2339, "village": "Great Broughton", "district": "Hambleton (East)", "clat": 54.44935, "clng": -1.1576543}, "great-busby": {"img": "great-busby.67907b887c.webp", "bytes": 88096, "w": 2339, "h": 1653, "village": "Great Busby", "district": "Hambleton (East)", "clat": 54.4439162, "clng": -1.199134}, "great-thirkleby": {"img": "great-thirkleby.81fade98b1.webp", "bytes": 150254, "w": 2339, "h": 1653, "village": "Great Thirkleby", "district": "Hambleton (East)", "clat": 54.2035777, "clng": -1.2726395}, "high-kilburn": {"img": "high-kilburn.39558c562b.webp", "bytes": 97788, "w": 2339, "h": 1653, "village": "High Kilburn", "district": "Hambleton (East)", "clat": 54.2099136, "clng": -1.208612}, "huby-central": {"img": "huby-central.5986bcd9e1.webp", "bytes": 207172, "w": 2339, "h": 1653, "village": "Huby", "district": "Hambleton (East)", "clat": 54.0839068, "clng": -1.13527}, "huby-north": {"img": "huby-north.b2d1c78a6d.webp", "bytes": 201222, "w": 2339, "h": 1653, "village": "Huby", "district": "Hambleton (East)", "clat": 54.0839068, "clng": -1.13527}, "huby-south": {"img": "huby-south.b51fc5a6fe.webp", "bytes": 211418, "w": 2339, "h": 1653, "village": "Huby", "district": "Hambleton (East)", "clat": 54.0839068, "clng": -1.13527}, "husthwaite": {"img": "husthwaite.36c24b09a5.webp", "bytes": 257872, "w": 2339, "h": 1653, "village": "Husthwaite", "district": "Hambleton (East)", "clat": 54.1687601, "clng": -1.2062223}, "hutton-rudby-central": {"img": "hutton-rudby-central.ff026b8191.webp", "bytes": 201390, "w": 2339, "h": 1653, "village": "Hutton Rudby", "district": "Hambleton (East)", "clat": 54.4491204, "clng": -1.2782101}, "hutton-rudby-east": {"img": "hutton-rudby-east.3855e64146.webp", "bytes": 202864, "w": 2339, "h": 1653, "village": "Hutton Rudby", "district": "Hambleton (East)", "clat": 54.4491204, "clng": -1.2782101}, "hutton-rudby-north": {"img": "hutton-rudby-north.d590729677.webp", "bytes": 179922, "w": 2339, "h": 1653, "village": "Hutton Rudby", "district": "Hambleton (East)", "clat": 54.4491204, "clng": -1.2782101}, "hutton-rudby-south": {"img": "hutton-rudby-south.553e102f9d.webp", "bytes": 196230, "w": 1653, "h": 2339, "village": "Hutton Rudby", "district": "Hambleton (East)", "clat": 54.4491204, "clng": -1.2782101}, "ingleby-arncliffe": {"img": "ingleby-arncliffe.74ceb5b22c.webp", "bytes": 208712, "w": 1653, "h": 2339, "village": "Ingleby Arncliffe", "district": "Hambleton (East)", "clat": 54.4013728, "clng": -1.3132968}, "ingleby-cross": {"img": "ingleby-cross.48b4d0e4b8.webp", "bytes": 152814, "w": 2339, "h": 1653, "village": "Ingleby Cross", "district": "Hambleton (East)", "clat": 54.3993352, "clng": -1.3089903}, "ingleby-greenhow": {"img": "ingleby-greenhow.5b53897e3a.webp", "bytes": 156672, "w": 2339, "h": 1653, "village": "Ingleby Greenhow", "district": "Hambleton (East)", "clat": 54.4498241, "clng": -1.1050234}, "kepwick": {"img": "kepwick.ad3a406c58.webp", "bytes": 99278, "w": 2339, "h": 1653, "village": "Kepwick", "district": "Hambleton (East)", "clat": 54.3119573, "clng": -1.2805926}, "kilburn": {"img": "kilburn.e62cfa3189.webp", "bytes": 208734, "w": 1653, "h": 2339, "village": "Kilburn", "district": "Hambleton (East)", "clat": 54.2091636, "clng": -1.2139246}, "kildale": {"img": "kildale.6747a6a05e.webp", "bytes": 120728, "w": 2339, "h": 1653, "village": "Kildale", "district": "Hambleton (East)", "clat": 54.4763329, "clng": -1.063748}, "kirby-knowle": {"img": "kirby-knowle.1c711e544f.webp", "bytes": 91222, "w": 2339, "h": 1653, "village": "Kirby Knowle", "district": "Hambleton (East)", "clat": 54.2795811, "clng": -1.2802046}, "kirkby": {"img": "kirkby.5be84d8ff8.webp", "bytes": 171832, "w": 2339, "h": 1653, "village": "Kirkby", "district": "Hambleton (East)", "clat": 54.4461006, "clng": -1.1704416}, "knayton-north": {"img": "knayton-north.552a0c9400.webp", "bytes": 130764, "w": 2339, "h": 1653, "village": "Knayton", "district": "Hambleton (East)", "clat": 54.2857283, "clng": -1.337026}, "knayton-south": {"img": "knayton-south.37a5f1170d.webp", "bytes": 180842, "w": 1653, "h": 2339, "village": "Knayton", "district": "Hambleton (East)", "clat": 54.2857283, "clng": -1.337026}, "knayton-west": {"img": "knayton-west.a95ae4361a.webp", "bytes": 79578, "w": 2339, "h": 1653, "village": "Knayton", "district": "Hambleton (East)", "clat": 54.2857283, "clng": -1.337026}, "little-ayton": {"img": "little-ayton.658d4f1b30.webp", "bytes": 95360, "w": 2339, "h": 1653, "village": "Little Ayton", "district": "Hambleton (East)", "clat": 54.4841719, "clng": -1.122436}, "little-thirkleby": {"img": "little-thirkleby.49dc231df9.webp", "bytes": 119650, "w": 1653, "h": 2339, "village": "Little Thirkleby", "district": "Hambleton (East)", "clat": 54.2017704, "clng": -1.2685411}, "middleton-on-leven": {"img": "middleton-on-leven.6b0fc04a2c.webp", "bytes": 85544, "w": 2339, "h": 1653, "village": "Middleton-on-Leven", "district": "Hambleton (East)", "clat": 54.482449, "clng": -1.2818051}, "nether-silton": {"img": "nether-silton.98001865be.webp", "bytes": 106924, "w": 2339, "h": 1653, "village": "Nether Silton", "district": "Hambleton (East)", "clat": 54.3248033, "clng": -1.3003741}, "newby": {"img": "newby.f014964d57.webp", "bytes": 128342, "w": 2339, "h": 1653, "village": "Newby", "district": "Hambleton (East)", "clat": 54.4997998, "clng": -1.2088369}, "new-row": {"img": "new-row.933ec04869.webp", "bytes": 70006, "w": 2339, "h": 1653, "village": "New Row", "district": "Hambleton (East)", "clat": 54.0919292, "clng": -1.3963273}, "oulston": {"img": "oulston.5da5625e0a.webp", "bytes": 128550, "w": 2339, "h": 1653, "village": "Oulston", "district": "Hambleton (East)", "clat": 54.1629369, "clng": -1.1637558}, "over-silton": {"img": "over-silton.68db5693b8.webp", "bytes": 117168, "w": 2339, "h": 1653, "village": "Over Silton", "district": "Hambleton (East)", "clat": 54.3333501, "clng": -1.3068269}, "potto": {"img": "potto.b0d5bd762c.webp", "bytes": 125574, "w": 2339, "h": 1653, "village": "Potto", "district": "Hambleton (East)", "clat": 54.4260299, "clng": -1.2700436}, "seamer": {"img": "seamer.1ffedd267b.webp", "bytes": 165656, "w": 2339, "h": 1653, "village": "Seamer", "district": "Hambleton (East)", "clat": 54.4807183, "clng": -1.2320254}, "seave-green": {"img": "seave-green.23f94d018e.webp", "bytes": 122156, "w": 1653, "h": 2339, "village": "Seave Green", "district": "Hambleton (East)", "clat": 54.3946092, "clng": -1.1357286}, "skewsby": {"img": "skewsby.8a06569151.webp", "bytes": 113158, "w": 2339, "h": 1653, "village": "Skewsby", "district": "Hambleton (East)", "clat": 54.131556, "clng": -1.0439583}, "stearsby": {"img": "stearsby.2f36d2e4a6.webp", "bytes": 68974, "w": 2339, "h": 1653, "village": "Stearsby", "district": "Hambleton (East)", "clat": 54.1357347, "clng": -1.0672368}, "stillington-east": {"img": "stillington-east.a4a94f69bc.webp", "bytes": 239040, "w": 2339, "h": 1653, "village": "Stillington", "district": "Hambleton (East)", "clat": 54.105853, "clng": -1.1303107}, "stillington-north": {"img": "stillington-north.14c9c26583.webp", "bytes": 209392, "w": 2339, "h": 1653, "village": "Stillington", "district": "Hambleton (East)", "clat": 54.105853, "clng": -1.1303107}, "stillington-west": {"img": "stillington-west.545dcfb4a2.webp", "bytes": 148222, "w": 2339, "h": 1653, "village": "Stillington", "district": "Hambleton (East)", "clat": 54.105853, "clng": -1.1303107}, "sutton-on-the-forest-nth": {"img": "sutton-on-the-forest-nth.89673fe291.webp", "bytes": 159462, "w": 2339, "h": 1653, "village": "Sutton-on-the-Forest", "district": "Hambleton (East)", "clat": 54.0629396, "clng": -1.1031488}, "sutton-on-the-forest-sth": {"img": "sutton-on-the-forest-sth.eb847f853c.webp", "bytes": 187578, "w": 2339, "h": 1653, "village": "Sutton-on-the-Forest", "district": "Hambleton (East)", "clat": 54.0629396, "clng": -1.1031488}, "sutton-under-whitestonecliffe": {"img": "sutton-under-whitestonecliffe.ef9f313672.webp", "bytes": 194848, "w": 2339, "h": 1653, "village": "Sutton-under-Whitestonecliffe", "district": "Hambleton (East)", "clat": 54.2367219, "clng": -1.2598421}, "the-grange": {"img": "the-grange.6f6906aa9a.webp", "bytes": 62650, "w": 2339, "h": 1653, "village": "The Grange", "district": "Hambleton (East)", "clat": 54.3564994, "clng": -1.1223453}, "thimbleby": {"img": "thimbleby.56c63d34da.webp", "bytes": 98198, "w": 2339, "h": 1653, "village": "Thimbleby", "district": "Hambleton (East)", "clat": 54.3523425, "clng": -1.3092338}, "thirlby": {"img": "thirlby.d510a99df9.webp", "bytes": 160334, "w": 2339, "h": 1653, "village": "Thirlby", "district": "Hambleton (East)", "clat": 54.2498566, "clng": -1.2502826}, "upsall": {"img": "upsall.1f80fb5bb0.webp", "bytes": 88370, "w": 2339, "h": 1653, "village": "Upsall", "district": "Hambleton (East)", "clat": 54.2775793, "clng": -1.3055165}, "urra": {"img": "urra.6a2f415145.webp", "bytes": 65142, "w": 2339, "h": 1653, "village": "Urra", "district": "Hambleton (East)", "clat": 54.4100404, "clng": -1.1215195}, "whenby": {"img": "whenby.2494cd8467.webp", "bytes": 99562, "w": 2339, "h": 1653, "village": "Whenby", "district": "Hambleton (East)", "clat": 54.1215082, "clng": -1.0386479}, "whorlton": {"img": "whorlton.e82742c023.webp", "bytes": 69972, "w": 2339, "h": 1653, "village": "Whorlton", "district": "Hambleton (East)", "clat": 54.4143591, "clng": -1.2535305}, "yearsley": {"img": "yearsley.918a43ad8e.webp", "bytes": 134622, "w": 2339, "h": 1653, "village": "Yearsley", "district": "Hambleton (East)", "clat": 54.1624685, "clng": -1.1044417}, "airton": {"img": "airton.a13c18cb7e.webp", "bytes": 233998, "w": 1653, "h": 2339, "village": "Airton", "district": "Craven", "clat": 54.0295321, "clng": -2.1505235}, "appletreewick": {"img": "appletreewick.7f6695b322.webp", "bytes": 131018, "w": 2339, "h": 1653, "village": "Appletreewick", "district": "Craven", "clat": 54.0364783, "clng": -1.9201632}, "arncliffe": {"img": "arncliffe.795489a13d.webp", "bytes": 175542, "w": 2339, "h": 1653, "village": "Arncliffe", "district": "Craven", "clat": 54.1421543, "clng": -2.105976}, "austwick-east": {"img": "austwick-east.3fcf5ac4db.webp", "bytes": 224876, "w": 2339, "h": 1653, "village": "Austwick", "district": "Craven", "clat": 54.1293998, "clng": -2.3396696}, "austwick-west": {"img": "austwick-west.1ec8584da4.webp", "bytes": 188934, "w": 1653, "h": 2339, "village": "Austwick", "district": "Craven", "clat": 54.1293998, "clng": -2.3396696}, "bank-newton": {"img": "bank-newton.813b7105aa.webp", "bytes": 70578, "w": 2339, "h": 1653, "village": "Bank Newton", "district": "Craven", "clat": 53.9738474, "clng": -2.13752}, "beamsley": {"img": "beamsley.6184d9ac39.webp", "bytes": 101332, "w": 2339, "h": 1653, "village": "Beamsley", "district": "Craven", "clat": 53.9682481, "clng": -1.8825243}, "bell-busk": {"img": "bell-busk.0cbad304d3.webp", "bytes": 84248, "w": 2339, "h": 1653, "village": "Bell Busk", "district": "Craven", "clat": 54.006111, "clng": -2.1510625}, "bolton-abbey": {"img": "bolton-abbey.1dacbd5a9e.webp", "bytes": 100362, "w": 2339, "h": 1653, "village": "Bolton Abbey", "district": "Craven", "clat": 53.9822931, "clng": -1.8912314}, "buckden": {"img": "buckden.308427dd13.webp", "bytes": 219174, "w": 1653, "h": 2339, "village": "Buckden", "district": "Craven", "clat": 54.1904497, "clng": -2.0902961}, "burnsall": {"img": "burnsall.2a46f5255f.webp", "bytes": 182500, "w": 1653, "h": 2339, "village": "Burnsall", "district": "Craven", "clat": 54.0474704, "clng": -1.9523342}, "burton-in-lonsdale-north": {"img": "burton-in-lonsdale-north.1b153372a8.webp", "bytes": 174230, "w": 2339, "h": 1653, "village": "Burton in Lonsdale", "district": "Craven", "clat": 54.1516035, "clng": -2.536051}, "burton-in-lonsdale-south": {"img": "burton-in-lonsdale-south.e38753fe62.webp", "bytes": 205496, "w": 1653, "h": 2339, "village": "Burton in Lonsdale", "district": "Craven", "clat": 54.1516035, "clng": -2.536051}, "calton": {"img": "calton.a04e2f1e71.webp", "bytes": 116108, "w": 2339, "h": 1653, "village": "Calton", "district": "Craven", "clat": 54.0288454, "clng": -2.1397032}, "chapel-le-dale": {"img": "chapel-le-dale.5b64785771.webp", "bytes": 84574, "w": 2339, "h": 1653, "village": "Chapel-le-Dale", "district": "Craven", "clat": 54.1892432, "clng": -2.4047234}, "clapham-east": {"img": "clapham-east.daa96a3721.webp", "bytes": 146672, "w": 1653, "h": 2339, "village": "Clapham", "district": "Craven", "clat": 54.105416, "clng": -2.4104509}, "clapham-west": {"img": "clapham-west.e78d16e8bd.webp", "bytes": 223874, "w": 1653, "h": 2339, "village": "Clapham", "district": "Craven", "clat": 54.105416, "clng": -2.4104509}, "cold-cotes": {"img": "cold-cotes.91c03493a1.webp", "bytes": 94394, "w": 2339, "h": 1653, "village": "Cold Cotes", "district": "Craven", "clat": 54.1359949, "clng": -2.4349489}, "coniston-cold": {"img": "coniston-cold.ecde6989dc.webp", "bytes": 131586, "w": 2339, "h": 1653, "village": "Coniston Cold", "district": "Craven", "clat": 53.9905839, "clng": -2.1508313}, "conistone": {"img": "conistone.c9a5f7d259.webp", "bytes": 181136, "w": 1653, "h": 2339, "village": "Conistone", "district": "Craven", "clat": 54.1029968, "clng": -2.0296754}, "cracoe": {"img": "cracoe.09e292de66.webp", "bytes": 207616, "w": 2339, "h": 1653, "village": "Cracoe", "district": "Craven", "clat": 54.0368137, "clng": -2.0359266}, "draughton": {"img": "draughton.001283a060.webp", "bytes": 178854, "w": 2339, "h": 1653, "village": "Draughton", "district": "Craven", "clat": 53.9638071, "clng": -1.9297818}, "drebley": {"img": "drebley.2d24141d66.webp", "bytes": 51858, "w": 2339, "h": 1653, "village": "Drebley", "district": "Craven", "clat": 54.028542, "clng": -1.9205369}, "eastby": {"img": "eastby.b887582281.webp", "bytes": 83260, "w": 2339, "h": 1653, "village": "Eastby", "district": "Craven", "clat": 53.9861337, "clng": -1.9733841}, "east-marton": {"img": "east-marton.10dd16de90.webp", "bytes": 102468, "w": 2339, "h": 1653, "village": "East Marton", "district": "Craven", "clat": 53.954103, "clng": -2.141264}, "eldroth": {"img": "eldroth.f77861562f.webp", "bytes": 72698, "w": 2339, "h": 1653, "village": "Eldroth", "district": "Craven", "clat": 54.0834606, "clng": -2.362331}, "elslack": {"img": "elslack.cbfd521d4b.webp", "bytes": 98602, "w": 2339, "h": 1653, "village": "Elslack", "district": "Craven", "clat": 53.936697, "clng": -2.1078787}, "eshton": {"img": "eshton.f41737c342.webp", "bytes": 86952, "w": 2339, "h": 1653, "village": "Eshton", "district": "Craven", "clat": 54.001049, "clng": -2.09879}, "far-westhouse": {"img": "far-westhouse.2a20f0120e.webp", "bytes": 94360, "w": 2339, "h": 1653, "village": "Far Westhouse", "district": "Craven", "clat": 54.1618227, "clng": -2.4993739}, "feizor": {"img": "feizor.ea26e11f74.webp", "bytes": 116564, "w": 2339, "h": 1653, "village": "Feizor", "district": "Craven", "clat": 54.1041604, "clng": -2.3231643}, "flasby": {"img": "flasby.f1955e077d.webp", "bytes": 92432, "w": 2339, "h": 1653, "village": "Flasby", "district": "Craven", "clat": 54.0056671, "clng": -2.0812221}, "foxup": {"img": "foxup.29c98bae57.webp", "bytes": 65450, "w": 2339, "h": 1653, "village": "Foxup", "district": "Craven", "clat": 54.1858286, "clng": -2.2015819}, "gargrave-northeast": {"img": "gargrave-northeast.65fb3d98d1.webp", "bytes": 209698, "w": 2339, "h": 1653, "village": "Gargrave", "district": "Craven", "clat": 53.9862692, "clng": -2.1105185}, "gargrave-northwest": {"img": "gargrave-northwest.c820a2d914.webp", "bytes": 160732, "w": 2339, "h": 1653, "village": "Gargrave", "district": "Craven", "clat": 53.9862692, "clng": -2.1105185}, "gargrave-southeast": {"img": "gargrave-southeast.679c215735.webp", "bytes": 212702, "w": 2339, "h": 1653, "village": "Gargrave", "district": "Craven", "clat": 53.9862692, "clng": -2.1105185}, "gargrave-southwest": {"img": "gargrave-southwest.fbf789377c.webp", "bytes": 177638, "w": 2339, "h": 1653, "village": "Gargrave", "district": "Craven", "clat": 53.9862692, "clng": -2.1105185}, "grassington-central": {"img": "grassington-central.3440075825.webp", "bytes": 170824, "w": 2339, "h": 1653, "village": "Grassington", "district": "Craven", "clat": 54.0722223, "clng": -1.9975016}, "grassington-east": {"img": "grassington-east.d0729d6d1d.webp", "bytes": 243246, "w": 1653, "h": 2339, "village": "Grassington", "district": "Craven", "clat": 54.0722223, "clng": -1.9975016}, "grassington-north": {"img": "grassington-north.f662f7edff.webp", "bytes": 223662, "w": 2339, "h": 1653, "village": "Grassington", "district": "Craven", "clat": 54.0722223, "clng": -1.9975016}, "grassington-west": {"img": "grassington-west.17dbf6bc8b.webp", "bytes": 230752, "w": 1653, "h": 2339, "village": "Grassington", "district": "Craven", "clat": 54.0722223, "clng": -1.9975016}, "halton-east": {"img": "halton-east.a98a9cca22.webp", "bytes": 122248, "w": 2339, "h": 1653, "village": "Halton East", "district": "Craven", "clat": 53.9843422, "clng": -1.9383432}, "halton-gill": {"img": "halton-gill.9a98ab8f5a.webp", "bytes": 114500, "w": 2339, "h": 1653, "village": "Halton Gill", "district": "Craven", "clat": 54.1845534, "clng": -2.185009}, "halton-west": {"img": "halton-west.d76818ea67.webp", "bytes": 107200, "w": 2339, "h": 1653, "village": "Halton West", "district": "Craven", "clat": 53.9852132, "clng": -2.2618371}, "hanlith": {"img": "hanlith.7e1148e9e9.webp", "bytes": 65844, "w": 2339, "h": 1653, "village": "Hanlith", "district": "Craven", "clat": 54.0477394, "clng": -2.1531042}, "hawkswick": {"img": "hawkswick.7c7daade38.webp", "bytes": 112012, "w": 2339, "h": 1653, "village": "Hawkswick", "district": "Craven", "clat": 54.1314405, "clng": -2.0701306}, "hazlewood": {"img": "hazlewood.e489fd9c71.webp", "bytes": 81096, "w": 2339, "h": 1653, "village": "Hazlewood", "district": "Craven", "clat": 53.9808143, "clng": -1.8650873}, "hebden": {"img": "hebden.242d2b6604.webp", "bytes": 252456, "w": 1653, "h": 2339, "village": "Hebden", "district": "Craven", "clat": 54.0636569, "clng": -1.9623022}, "hellifield-green": {"img": "hellifield-green.b4f56afb9f.webp", "bytes": 85048, "w": 2339, "h": 1653, "village": "Hellifield Green", "district": "Craven", "clat": 53.9959727, "clng": -2.215832}, "helwith-bridge": {"img": "helwith-bridge.5a14802246.webp", "bytes": 73876, "w": 2339, "h": 1653, "village": "Helwith Bridge", "district": "Craven", "clat": 54.1211275, "clng": -2.2906942}, "hetton": {"img": "hetton.9d7d9d6a44.webp", "bytes": 188178, "w": 1653, "h": 2339, "village": "Hetton", "district": "Craven", "clat": 54.0247454, "clng": -2.0618758}, "higher-westhouse": {"img": "higher-westhouse.051ddb11ac.webp", "bytes": 84740, "w": 2339, "h": 1653, "village": "Higher Westhouse", "district": "Craven", "clat": null, "clng": null}, "horton-in-ribblesdale-east": {"img": "horton-in-ribblesdale-east.913bebbaea.webp", "bytes": 165696, "w": 1653, "h": 2339, "village": "Horton in Ribblesdale", "district": "Craven", "clat": 54.1455978, "clng": -2.2928539}, "horton-in-ribblesdale-west": {"img": "horton-in-ribblesdale-west.46189eb851.webp", "bytes": 161070, "w": 1653, "h": 2339, "village": "Horton in Ribblesdale", "district": "Craven", "clat": 54.1455978, "clng": -2.2928539}, "hubberholme": {"img": "hubberholme.d32aa0b095.webp", "bytes": 90510, "w": 2339, "h": 1653, "village": "Hubberholme", "district": "Craven", "clat": 54.1999335, "clng": -2.1142135}, "keasden": {"img": "keasden.ee37b506ed.webp", "bytes": 56048, "w": 2339, "h": 1653, "village": "Keasden", "district": "Craven", "clat": 54.0943917, "clng": -2.4237555}, "kettlewell-east": {"img": "kettlewell-east.e69f13936b.webp", "bytes": 186636, "w": 2339, "h": 1653, "village": "Kettlewell", "district": "Craven", "clat": 54.1466579, "clng": -2.0492297}, "kettlewell-west": {"img": "kettlewell-west.146ed3b949.webp", "bytes": 236102, "w": 2339, "h": 1653, "village": "Kettlewell", "district": "Craven", "clat": 54.1466579, "clng": -2.0492297}, "kilnsey": {"img": "kilnsey.97f6c6a2c3.webp", "bytes": 123392, "w": 2339, "h": 1653, "village": "Kilnsey", "district": "Craven", "clat": 54.1065319, "clng": -2.0410809}, "kirkby-malham": {"img": "kirkby-malham.97d1b144a2.webp", "bytes": 154630, "w": 2339, "h": 1653, "village": "Kirkby Malham", "district": "Craven", "clat": 54.0453094, "clng": -2.1617595}, "langcliffe": {"img": "langcliffe.ed355b23ed.webp", "bytes": 185744, "w": 1653, "h": 2339, "village": "Langcliffe", "district": "Craven", "clat": 54.0809672, "clng": -2.273792}, "lawkland-green": {"img": "lawkland-green.d335b696b7.webp", "bytes": 47260, "w": 2339, "h": 1653, "village": "Lawkland Green", "district": "Craven", "clat": null, "clng": null}, "linton": {"img": "linton.5710de4565.webp", "bytes": 192936, "w": 2339, "h": 1653, "village": "Linton", "district": "Craven", "clat": 54.0566713, "clng": -2.0091203}, "little-stainforth": {"img": "little-stainforth.64b2a9f74d.webp", "bytes": 90824, "w": 2339, "h": 1653, "village": "Little Stainforth", "district": "Craven", "clat": 54.1006372, "clng": -2.2854617}, "litton": {"img": "litton.9d8ad8e75c.webp", "bytes": 121566, "w": 2339, "h": 1653, "village": "Litton", "district": "Craven", "clat": 54.1625746, "clng": -2.1463279}, "long-preston-north": {"img": "long-preston-north.14e55b3392.webp", "bytes": 184952, "w": 2339, "h": 1653, "village": "Long Preston", "district": "Craven", "clat": 54.0290339, "clng": -2.2511401}, "long-preston-south": {"img": "long-preston-south.5c1d5b8a6c.webp", "bytes": 209330, "w": 2339, "h": 1653, "village": "Long Preston", "district": "Craven", "clat": 54.0290339, "clng": -2.2511401}, "lothersdale-east": {"img": "lothersdale-east.c7085dc45b.webp", "bytes": 125220, "w": 2339, "h": 1653, "village": "Lothersdale", "district": "Craven", "clat": 53.9060954, "clng": -2.0731227}, "lothersdale-west": {"img": "lothersdale-west.7042b91233.webp", "bytes": 112456, "w": 2339, "h": 1653, "village": "Lothersdale", "district": "Craven", "clat": 53.9060954, "clng": -2.0731227}, "lower-westhouse": {"img": "lower-westhouse.efe28b3172.webp", "bytes": 108842, "w": 2339, "h": 1653, "village": "Lower Westhouse", "district": "Craven", "clat": 54.1589893, "clng": -2.5076377}, "malham": {"img": "malham.7638691afb.webp", "bytes": 219090, "w": 1653, "h": 2339, "village": "Malham", "district": "Craven", "clat": 54.0612719, "clng": -2.1529001}, "masongill": {"img": "masongill.282552ede4.webp", "bytes": 71488, "w": 2339, "h": 1653, "village": "Masongill", "district": "Craven", "clat": 54.1723143, "clng": -2.515593}, "mearbeck": {"img": "mearbeck.398aa4c866.webp", "bytes": 61270, "w": 2339, "h": 1653, "village": "Mearbeck", "district": "Craven", "clat": 54.0409739, "clng": -2.2781562}, "newby-craven": {"img": "newby-craven.f014964d57.webp", "bytes": 128342, "w": 2339, "h": 1653, "village": "Newby", "district": "Craven", "clat": 54.4997998, "clng": -1.2088369}, "oughtershaw": {"img": "oughtershaw.622bbcbb1e.webp", "bytes": 64478, "w": 1653, "h": 2339, "village": "Oughtershaw", "district": "Craven", "clat": 54.2288411, "clng": -2.2017712}, "otterburn": {"img": "otterburn.a3b189eb46.webp", "bytes": 92346, "w": 2339, "h": 1653, "village": "Otterburn", "district": "Craven", "clat": 54.0159422, "clng": -2.1798518}, "rathmell": {"img": "rathmell.a954a6a43f.webp", "bytes": 192194, "w": 1653, "h": 2339, "village": "Rathmell", "district": "Craven", "clat": 54.0366112, "clng": -2.3250809}, "rylstone": {"img": "rylstone.d3cda3c870.webp", "bytes": 146376, "w": 1653, "h": 2339, "village": "Rylstone", "district": "Craven", "clat": 54.0301002, "clng": -2.0519708}, "selside": {"img": "selside.4956921a30.webp", "bytes": 100728, "w": 2339, "h": 1653, "village": "Selside", "district": "Craven", "clat": 54.1767478, "clng": -2.3318912}, "skirethorns": {"img": "skirethorns.5a8b80a7af.webp", "bytes": 95608, "w": 2339, "h": 1653, "village": "Skirethorns", "district": "Craven", "clat": 54.075276, "clng": -2.0437808}, "stackhouse": {"img": "stackhouse.8d9717977e.webp", "bytes": 129356, "w": 2339, "h": 1653, "village": "Stackhouse", "district": "Craven", "clat": 54.0858688, "clng": -2.2851321}, "stainforth": {"img": "stainforth.fe87e941f6.webp", "bytes": 230914, "w": 1653, "h": 2339, "village": "Stainforth", "district": "Craven", "clat": 54.101956, "clng": -2.2749464}, "starbotton": {"img": "starbotton.6c114efa0b.webp", "bytes": 178200, "w": 2339, "h": 1653, "village": "Starbotton", "district": "Craven", "clat": 54.1688923, "clng": -2.0733872}, "stirton": {"img": "stirton.59a5628a72.webp", "bytes": 120480, "w": 2339, "h": 1653, "village": "Stirton", "district": "Craven", "clat": 53.9703497, "clng": -2.0452523}, "storiths": {"img": "storiths.a4064a13af.webp", "bytes": 74300, "w": 2339, "h": 1653, "village": "Storiths", "district": "Craven", "clat": 53.9853065, "clng": -1.8774018}, "thorlby": {"img": "thorlby.9f1bdfff58.webp", "bytes": 105170, "w": 2339, "h": 1653, "village": "Thorlby", "district": "Craven", "clat": 53.9716198, "clng": -2.0536527}, "thornton-in-craven": {"img": "thornton-in-craven.e1e7225aa6.webp", "bytes": 200266, "w": 2339, "h": 1653, "village": "Thornton in Craven", "district": "Craven", "clat": 53.9280618, "clng": -2.1254152}, "thornton-in-lonsdale": {"img": "thornton-in-lonsdale.aee94370e4.webp", "bytes": 116674, "w": 2339, "h": 1653, "village": "Thornton in Lonsdale", "district": "Craven", "clat": 54.187273, "clng": -2.472903}, "thorpe": {"img": "thorpe.870df6be6c.webp", "bytes": 95176, "w": 2339, "h": 1653, "village": "Thorpe", "district": "Craven", "clat": 54.0516118, "clng": -1.982028}, "threapland": {"img": "threapland.f045686c49.webp", "bytes": 58318, "w": 2339, "h": 1653, "village": "Threapland", "district": "Craven", "clat": 54.0420456, "clng": -2.0236499}, "threshfield-east": {"img": "threshfield-east.2c2a4624a9.webp", "bytes": 231832, "w": 2339, "h": 1653, "village": "Threshfield", "district": "Craven", "clat": 54.0683104, "clng": -2.0173312}, "threshfield-north": {"img": "threshfield-north.807ca5bf46.webp", "bytes": 115058, "w": 1653, "h": 2339, "village": "Threshfield", "district": "Craven", "clat": 54.0683104, "clng": -2.0173312}, "threshfield-west": {"img": "threshfield-west.16c7749157.webp", "bytes": 206232, "w": 1653, "h": 2339, "village": "Threshfield", "district": "Craven", "clat": 54.0683104, "clng": -2.0173312}, "west-marton": {"img": "west-marton.79537d6cc2.webp", "bytes": 148544, "w": 2339, "h": 1653, "village": "West Marton", "district": "Craven", "clat": 53.9509849, "clng": -2.1640426}, "wharfe": {"img": "wharfe.2f6635e6db.webp", "bytes": 100474, "w": 2339, "h": 1653, "village": "Wharfe", "district": "Craven", "clat": 53.910881, "clng": -1.6910531}, "wigglesworth": {"img": "wigglesworth.4f924c0c9f.webp", "bytes": 119084, "w": 2339, "h": 1653, "village": "Wigglesworth", "district": "Craven", "clat": 54.0080496, "clng": -2.2916364}, "winterburn": {"img": "winterburn.d1087590b9.webp", "bytes": 68952, "w": 2339, "h": 1653, "village": "Winterburn", "district": "Craven", "clat": 54.023621, "clng": -2.1013064}, "ainderby-quernhow": {"img": "ainderby-quernhow.b93cd94596.webp", "bytes": 108812, "w": 2339, "h": 1653, "village": "Ainderby Quernhow", "district": "Hambleton (West)", "clat": 54.2230686, "clng": -1.4669098}, "ainderby-steeple": {"img": "ainderby-steeple.ec77d23d53.webp", "bytes": 195940, "w": 2339, "h": 1653, "village": "Ainderby Steeple", "district": "Hambleton (West)", "clat": 54.3241605, "clng": -1.4884471}, "aldwark": {"img": "aldwark.559f08a284.webp", "bytes": 165316, "w": 2339, "h": 1653, "village": "Aldwark", "district": "Hambleton (West)", "clat": 54.0689002, "clng": -1.28041}, "alne-east": {"img": "alne-east.cf6ae254b3.webp", "bytes": 218058, "w": 2339, "h": 1653, "village": "Alne", "district": "Hambleton (West)", "clat": 54.0818256, "clng": -1.2428111}, "alne-west": {"img": "alne-west.97cad88ca1.webp", "bytes": 201030, "w": 2339, "h": 1653, "village": "Alne", "district": "Hambleton (West)", "clat": 54.0818256, "clng": -1.2428111}, "appleton-wiske-east": {"img": "appleton-wiske-east.8478c0490a.webp", "bytes": 238804, "w": 1653, "h": 2339, "village": "Appleton Wiske", "district": "Hambleton (West)", "clat": 54.4360729, "clng": -1.3996073}, "appleton-wiske-west": {"img": "appleton-wiske-west.2831a0116e.webp", "bytes": 224638, "w": 1653, "h": 2339, "village": "Appleton Wiske", "district": "Hambleton (West)", "clat": 54.4360729, "clng": -1.3996073}, "beningbrough": {"img": "beningbrough.41496885d1.webp", "bytes": 96862, "w": 2339, "h": 1653, "village": "Beningbrough", "district": "Hambleton (West)", "clat": 54.0125957, "clng": -1.1934109}, "birkby": {"img": "birkby.1dc7fddfb1.webp", "bytes": 97918, "w": 1653, "h": 2339, "village": "Birkby", "district": "Hambleton (West)", "clat": 54.4151924, "clng": -1.4906704}, "borrowby": {"img": "borrowby.64d62c21f2.webp", "bytes": 258390, "w": 1653, "h": 2339, "village": "Borrowby", "district": "Hambleton (West)", "clat": 54.2975299, "clng": -1.3438938}, "brafferton": {"img": "brafferton.d05f0f372f.webp", "bytes": 213820, "w": 2339, "h": 1653, "village": "Brafferton", "district": "Hambleton (West)", "clat": 54.1262701, "clng": -1.3321774}, "bullamoor": {"img": "bullamoor.094fef7ac1.webp", "bytes": 85062, "w": 1653, "h": 2339, "village": "Bullamoor", "district": "Hambleton (West)", "clat": 54.3422851, "clng": -1.3921812}, "burneston": {"img": "burneston.60a71199a3.webp", "bytes": 204696, "w": 2339, "h": 1653, "village": "Burneston", "district": "Hambleton (West)", "clat": 54.2608859, "clng": -1.528211}, "burrill": {"img": "burrill.2fac26ba5e.webp", "bytes": 123806, "w": 2339, "h": 1653, "village": "Burrill", "district": "Hambleton (West)", "clat": 54.2802754, "clng": -1.6333717}, "carlton-miniott-east": {"img": "carlton-miniott-east.e33207d560.webp", "bytes": 233894, "w": 2339, "h": 1653, "village": "Carlton Miniott", "district": "Hambleton (West)", "clat": 54.2234137, "clng": -1.3917222}, "carlton-miniott-west": {"img": "carlton-miniott-west.8f3dacbf46.webp", "bytes": 202656, "w": 2339, "h": 1653, "village": "Carlton Miniott", "district": "Hambleton (West)", "clat": 54.2234137, "clng": -1.3917222}, "carthorpe": {"img": "carthorpe.7c1b870f6e.webp", "bytes": 213540, "w": 2339, "h": 1653, "village": "Carthorpe", "district": "Hambleton (West)", "clat": 54.241992, "clng": -1.530338}, "catton": {"img": "catton.b9b5384b70.webp", "bytes": 131158, "w": 2339, "h": 1653, "village": "Catton", "district": "Hambleton (West)", "clat": 54.1978072, "clng": -1.4344919}, "cowling": {"img": "cowling.c61d4e359f.webp", "bytes": 71936, "w": 1653, "h": 2339, "village": "Cowling", "district": "Hambleton (West)", "clat": 53.8843537, "clng": -2.0435082}, "dalton-hambleton-west": {"img": "dalton-hambleton-west.88248bc77f.webp", "bytes": 212716, "w": 2339, "h": 1653, "village": "Dalton", "district": "Hambleton (West)", "clat": 54.1855566, "clng": -1.3320383}, "danby-wiske": {"img": "danby-wiske.6af70c6b35.webp", "bytes": 165782, "w": 2339, "h": 1653, "village": "Danby Wiske", "district": "Hambleton (West)", "clat": 54.3817393, "clng": -1.4831622}, "deighton": {"img": "deighton.41431b1097.webp", "bytes": 118308, "w": 2339, "h": 1653, "village": "Deighton", "district": "Hambleton (West)", "clat": 54.4096165, "clng": -1.4145624}, "east-cowton-east": {"img": "east-cowton-east.1ca1125d9e.webp", "bytes": 131288, "w": 2339, "h": 1653, "village": "East Cowton", "district": "Hambleton (West)", "clat": 54.4226253, "clng": -1.5254046}, "east-cowton-west": {"img": "east-cowton-west.77be2edc0d.webp", "bytes": 267940, "w": 2339, "h": 1653, "village": "East Cowton", "district": "Hambleton (West)", "clat": 54.4226253, "clng": -1.5254046}, "east-harlsey": {"img": "east-harlsey.af6b50fd66.webp", "bytes": 228782, "w": 2339, "h": 1653, "village": "East Harlsey", "district": "Hambleton (West)", "clat": 54.3917017, "clng": -1.349384}, "east-rounton": {"img": "east-rounton.0fbc811aba.webp", "bytes": 80448, "w": 2339, "h": 1653, "village": "East Rounton", "district": "Hambleton (West)", "clat": 54.4231028, "clng": -1.3495074}, "ellerbeck": {"img": "ellerbeck.1ea68c6249.webp", "bytes": 97320, "w": 2339, "h": 1653, "village": "Ellerbeck", "district": "Hambleton (West)", "clat": 54.3641219, "clng": -1.3357036}, "exelby": {"img": "exelby.2af53b03e0.webp", "bytes": 204276, "w": 2339, "h": 1653, "village": "Exelby", "district": "Hambleton (West)", "clat": 54.2768483, "clng": -1.5520468}, "firby": {"img": "firby.da9cc2a8d1.webp", "bytes": 88932, "w": 2339, "h": 1653, "village": "Firby", "district": "Hambleton (West)", "clat": 54.2731978, "clng": -1.5892021}, "flawith": {"img": "flawith.d2c431f399.webp", "bytes": 141774, "w": 2339, "h": 1653, "village": "Flawith", "district": "Hambleton (West)", "clat": 54.082264, "clng": -1.2687943}, "gatenby": {"img": "gatenby.f824a8bbac.webp", "bytes": 88574, "w": 2339, "h": 1653, "village": "Gatenby", "district": "Hambleton (West)", "clat": 54.2860465, "clng": -1.5020447}, "girsby": {"img": "girsby.893a55f852.webp", "bytes": 51296, "w": 2339, "h": 1653, "village": "Girsby", "district": "Hambleton (West)", "clat": 54.4697677, "clng": -1.4544264}, "great-crakehall": {"img": "great-crakehall.96a4ec4012.webp", "bytes": 226368, "w": 2339, "h": 1653, "village": "Great Crakehall", "district": "Hambleton (West)", "clat": 54.3044998, "clng": -1.6258437}, "great-fencote": {"img": "great-fencote.d49268ecb8.webp", "bytes": 95140, "w": 2339, "h": 1653, "village": "Great Fencote", "district": "Hambleton (West)", "clat": 54.3372231, "clng": -1.5660145}, "great-langton": {"img": "great-langton.7f529f240a.webp", "bytes": 148946, "w": 2339, "h": 1653, "village": "Great Langton", "district": "Hambleton (West)", "clat": 54.3695294, "clng": -1.5347103}, "great-smeaton": {"img": "great-smeaton.989744b5aa.webp", "bytes": 194798, "w": 2339, "h": 1653, "village": "Great Smeaton", "district": "Hambleton (West)", "clat": 54.4345884, "clng": -1.4663498}, "hackforth": {"img": "hackforth.296872f596.webp", "bytes": 131458, "w": 1653, "h": 2339, "village": "Hackforth", "district": "Hambleton (West)", "clat": 54.3343499, "clng": -1.6254387}, "helperby-east": {"img": "helperby-east.e9f941b632.webp", "bytes": 185644, "w": 2339, "h": 1653, "village": "Helperby", "district": "Hambleton (West)", "clat": 54.1237165, "clng": -1.328974}, "helperby-west": {"img": "helperby-west.377372b433.webp", "bytes": 206792, "w": 2339, "h": 1653, "village": "Helperby", "district": "Hambleton (West)", "clat": 54.1237165, "clng": -1.328974}, "high-worsall": {"img": "high-worsall.89a8524d82.webp", "bytes": 58274, "w": 2339, "h": 1653, "village": "High Worsall", "district": "Hambleton (West)", "clat": 54.4794812, "clng": -1.4061502}, "holme": {"img": "holme.05dced2ae3.webp", "bytes": 90430, "w": 2339, "h": 1653, "village": "Holme", "district": "Hambleton (West)", "clat": 54.2349804, "clng": -1.4553994}, "hornby-hambleton-west": {"img": "hornby-hambleton-west.879500d5e9.webp", "bytes": 146676, "w": 2339, "h": 1653, "village": "Hornby", "district": "Hambleton (West)", "clat": 54.4443469, "clng": -1.4408688}, "howe": {"img": "howe.9c6e0dc7b4.webp", "bytes": 87300, "w": 2339, "h": 1653, "village": "Howe", "district": "Hambleton (West)", "clat": 54.2176051, "clng": -1.4536256}, "hutton-sessay": {"img": "hutton-sessay.2088153701.webp", "bytes": 128072, "w": 2339, "h": 1653, "village": "Hutton Sessay", "district": "Hambleton (West)", "clat": 54.1806947, "clng": -1.2801062}, "kirby-fleetham": {"img": "kirby-fleetham.bc6cf209a9.webp", "bytes": 210206, "w": 2339, "h": 1653, "village": "Kirby Fleetham", "district": "Hambleton (West)", "clat": null, "clng": null}, "kirby-sigston": {"img": "kirby-sigston.57528146bb.webp", "bytes": 68190, "w": 1653, "h": 2339, "village": "Kirby Sigston", "district": "Hambleton (West)", "clat": 54.3474395, "clng": -1.3617253}, "kirby-wiske": {"img": "kirby-wiske.ec02437826.webp", "bytes": 107704, "w": 2339, "h": 1653, "village": "Kirby Wiske", "district": "Hambleton (West)", "clat": 54.2584788, "clng": -1.4398546}, "kirkbridge": {"img": "kirkbridge.55200b527a.webp", "bytes": 90344, "w": 2339, "h": 1653, "village": "Kirkbridge", "district": "Hambleton (West)", "clat": 54.5025721, "clng": -1.713986}, "kirklington": {"img": "kirklington.2837c33f38.webp", "bytes": 175962, "w": 2339, "h": 1653, "village": "Kirklington", "district": "Hambleton (West)", "clat": 54.2257498, "clng": -1.5124897}, "langthorne": {"img": "langthorne.3037f3ad3e.webp", "bytes": 112156, "w": 1653, "h": 2339, "village": "Langthorne", "district": "Hambleton (West)", "clat": 54.3200078, "clng": -1.6158076}, "leeming": {"img": "leeming.6aabc1b9d9.webp", "bytes": 237756, "w": 2339, "h": 1653, "village": "Leeming", "district": "Hambleton (West)", "clat": 54.2984091, "clng": -1.5497583}, "linton-on-ouse": {"img": "linton-on-ouse.3bdda44aac.webp", "bytes": 231630, "w": 2339, "h": 1653, "village": "Linton-on-Ouse", "district": "Hambleton (West)", "clat": 54.0410706, "clng": -1.2485742}, "little-crakehall": {"img": "little-crakehall.c3c78dd106.webp", "bytes": 184718, "w": 2339, "h": 1653, "village": "Little Crakehall", "district": "Hambleton (West)", "clat": 54.3061712, "clng": -1.6296632}, "little-fencote": {"img": "little-fencote.0efe39a6c9.webp", "bytes": 87128, "w": 2339, "h": 1653, "village": "Little Fencote", "district": "Hambleton (West)", "clat": 54.3336256, "clng": -1.5644599}, "londonderry": {"img": "londonderry.cd8c8cf1ba.webp", "bytes": 155210, "w": 1653, "h": 2339, "village": "Londonderry", "district": "Hambleton (West)", "clat": 54.2833311, "clng": -1.5360182}, "low-worsall": {"img": "low-worsall.1169e87b32.webp", "bytes": 161378, "w": 2339, "h": 1653, "village": "Low Worsall", "district": "Hambleton (West)", "clat": 54.4829933, "clng": -1.3951832}, "maunby": {"img": "maunby.1a6d2f956c.webp", "bytes": 150320, "w": 2339, "h": 1653, "village": "Maunby", "district": "Hambleton (West)", "clat": 54.2800323, "clng": -1.4646685}, "morton-on-swale-north": {"img": "morton-on-swale-north.e08fd7c73d.webp", "bytes": 166682, "w": 2339, "h": 1653, "village": "Morton-on-Swale", "district": "Hambleton (West)", "clat": 54.3226271, "clng": -1.4991726}, "morton-on-swale-south": {"img": "morton-on-swale-south.974c8a223e.webp", "bytes": 203084, "w": 2339, "h": 1653, "village": "Morton-on-Swale", "district": "Hambleton (West)", "clat": 54.3226271, "clng": -1.4991726}, "myton-on-swale": {"img": "myton-on-swale.32de4c02fc.webp", "bytes": 142182, "w": 2339, "h": 1653, "village": "Myton-on-Swale", "district": "Hambleton (West)", "clat": 54.0928225, "clng": -1.3306632}, "newby-wiske": {"img": "newby-wiske.62b63381f7.webp", "bytes": 185128, "w": 1653, "h": 2339, "village": "Newby Wiske", "district": "Hambleton (West)", "clat": 54.2876879, "clng": -1.4465558}, "newton-on-ouse": {"img": "newton-on-ouse.02c64c30de.webp", "bytes": 253868, "w": 2339, "h": 1653, "village": "Newton-on-Ouse", "district": "Hambleton (West)", "clat": 54.0326721, "clng": -1.2201224}, "newsham-hambleton-west": {"img": "newsham-hambleton-west.82e2fb3e61.webp", "bytes": 57398, "w": 2339, "h": 1653, "village": "Newsham", "district": "Hambleton (West)", "clat": 54.4779065, "clng": -1.8565597}, "north-otterington": {"img": "north-otterington.391f628ef7.webp", "bytes": 74560, "w": 1653, "h": 2339, "village": "North Otterington", "district": "Hambleton (West)", "clat": 54.3098318, "clng": -1.4398472}, "nosterfield": {"img": "nosterfield.8858f92004.webp", "bytes": 128254, "w": 1653, "h": 2339, "village": "Nosterfield", "district": "Hambleton (West)", "clat": 54.218647, "clng": -1.5755478}, "pepper-arden": {"img": "pepper-arden.0625bf8c02.webp", "bytes": 111432, "w": 2339, "h": 1653, "village": "Pepper Arden", "district": "Hambleton (West)", "clat": 54.4195576, "clng": -1.54398}, "pickhill": {"img": "pickhill.3e39e34c88.webp", "bytes": 254290, "w": 2339, "h": 1653, "village": "Pickhill", "district": "Hambleton (West)", "clat": 54.2457094, "clng": -1.4720512}, "picton": {"img": "picton.9eea2e391d.webp", "bytes": 151208, "w": 1653, "h": 2339, "village": "Picton", "district": "Hambleton (West)", "clat": 54.4606239, "clng": -1.359728}, "raskelf": {"img": "raskelf.131f6a766b.webp", "bytes": 236196, "w": 1653, "h": 2339, "village": "Raskelf", "district": "Hambleton (West)", "clat": 54.1324566, "clng": -1.2635075}, "saltergill": {"img": "saltergill.609c888cfc.webp", "bytes": 96136, "w": 2339, "h": 1653, "village": "Saltergill", "district": "Hambleton (West)", "clat": 54.4858517, "clng": -1.3745861}, "sandhutton": {"img": "sandhutton.07f9b09cb4.webp", "bytes": 218002, "w": 1653, "h": 2339, "village": "Sandhutton", "district": "Hambleton (West)", "clat": 54.2324003, "clng": -1.4147642}, "scruton": {"img": "scruton.7628c50786.webp", "bytes": 238498, "w": 2339, "h": 1653, "village": "Scruton", "district": "Hambleton (West)", "clat": 54.3211214, "clng": -1.5385287}, "sessay-north": {"img": "sessay-north.da638e2d2e.webp", "bytes": 195800, "w": 1653, "h": 2339, "village": "Sessay", "district": "Hambleton (West)", "clat": 54.1684504, "clng": -1.2935242}, "sessay-south": {"img": "sessay-south.4495a64e2c.webp", "bytes": 129084, "w": 2339, "h": 1653, "village": "Sessay", "district": "Hambleton (West)", "clat": 54.1684504, "clng": -1.2935242}, "shipton-east": {"img": "shipton-east.6a8df1dc1f.webp", "bytes": 152542, "w": 1653, "h": 2339, "village": "Shipton", "district": "Hambleton (West)", "clat": 54.0269233, "clng": -1.1610461}, "shipton-west": {"img": "shipton-west.c4dbd9f67c.webp", "bytes": 182790, "w": 1653, "h": 2339, "village": "Shipton", "district": "Hambleton (West)", "clat": 54.0269233, "clng": -1.1610461}, "sinderby": {"img": "sinderby.4dd4a6b4f3.webp", "bytes": 171686, "w": 1653, "h": 2339, "village": "Sinderby", "district": "Hambleton (West)", "clat": 54.2311693, "clng": -1.47232}, "skipton-on-swale": {"img": "skipton-on-swale.6bda41cd4d.webp", "bytes": 155640, "w": 2339, "h": 1653, "village": "Skipton-on-Swale", "district": "Hambleton (West)", "clat": 54.2151505, "clng": -1.4304506}, "snape": {"img": "snape.3d41f5ac3a.webp", "bytes": 204754, "w": 2339, "h": 1653, "village": "Snape", "district": "Hambleton (West)", "clat": 54.2532147, "clng": -1.5875921}, "south-kilvington": {"img": "south-kilvington.7b26163369.webp", "bytes": 224026, "w": 1653, "h": 2339, "village": "South Kilvington", "district": "Hambleton (West)", "clat": 54.2509428, "clng": -1.3486552}, "south-otterington": {"img": "south-otterington.868056da34.webp", "bytes": 190050, "w": 2339, "h": 1653, "village": "South Otterington", "district": "Hambleton (West)", "clat": 54.2841965, "clng": -1.4223844}, "streetlam": {"img": "streetlam.e32f20cab8.webp", "bytes": 82420, "w": 2339, "h": 1653, "village": "Streetlam", "district": "Hambleton (West)", "clat": 54.3847078, "clng": -1.5243217}, "sutton-howgrave": {"img": "sutton-howgrave.015dff5862.webp", "bytes": 146762, "w": 2339, "h": 1653, "village": "Sutton Howgrave", "district": "Hambleton (West)", "clat": 54.2055772, "clng": -1.5160885}, "theakston": {"img": "theakston.7c16505eb6.webp", "bytes": 105714, "w": 2339, "h": 1653, "village": "Theakston", "district": "Hambleton (West)", "clat": 54.2659305, "clng": -1.5375107}, "thirn": {"img": "thirn.83ef7da6d8.webp", "bytes": 97770, "w": 2339, "h": 1653, "village": "Thirn", "district": "Hambleton (West)", "clat": 54.2677887, "clng": -1.6703802}, "thormanby": {"img": "thormanby.3d8bd4f487.webp", "bytes": 160384, "w": 2339, "h": 1653, "village": "Thormanby", "district": "Hambleton (West)", "clat": 54.1677618, "clng": -1.2450263}, "tholthorpe": {"img": "tholthorpe.63f5b963c4.webp", "bytes": 233606, "w": 1653, "h": 2339, "village": "Tholthorpe", "district": "Hambleton (West)", "clat": 54.0984635, "clng": -1.2688417}, "thornborough": {"img": "thornborough.d37afd7579.webp", "bytes": 135226, "w": 2339, "h": 1653, "village": "Thornborough", "district": "Hambleton (West)", "clat": 54.212798, "clng": -1.5536877}, "thornton-le-beans": {"img": "thornton-le-beans.67e9a6454e.webp", "bytes": 181770, "w": 2339, "h": 1653, "village": "Thornton-le-Beans", "district": "Hambleton (West)", "clat": 54.3084062, "clng": -1.3904914}, "thornton-le-moor": {"img": "thornton-le-moor.293dd4e597.webp", "bytes": 194182, "w": 2339, "h": 1653, "village": "Thornton-le-Moor", "district": "Hambleton (West)", "clat": 54.2874721, "clng": -1.4011833}, "thornton-le-street": {"img": "thornton-le-street.14737cec13.webp", "bytes": 121484, "w": 2339, "h": 1653, "village": "Thornton-le-Street", "district": "Hambleton (West)", "clat": 54.2702662, "clng": -1.3662558}, "thornton-watlass": {"img": "thornton-watlass.bf6b37b7cf.webp", "bytes": 208854, "w": 1653, "h": 2339, "village": "Thornton Watlass", "district": "Hambleton (West)", "clat": 54.2650412, "clng": -1.640256}, "thrintoft": {"img": "thrintoft.d59f735534.webp", "bytes": 137006, "w": 2339, "h": 1653, "village": "Thrintoft", "district": "Hambleton (West)", "clat": 54.3430614, "clng": -1.5118884}, "tollerton-east": {"img": "tollerton-east.7172c36e5b.webp", "bytes": 173148, "w": 2339, "h": 1653, "village": "Tollerton", "district": "Hambleton (West)", "clat": 54.0708056, "clng": -1.2084174}, "tollerton-north": {"img": "tollerton-north.dbf6547020.webp", "bytes": 168802, "w": 2339, "h": 1653, "village": "Tollerton", "district": "Hambleton (West)", "clat": 54.0708056, "clng": -1.2084174}, "tollerton-south": {"img": "tollerton-south.f9e1004536.webp", "bytes": 184928, "w": 2339, "h": 1653, "village": "Tollerton", "district": "Hambleton (West)", "clat": 54.0708056, "clng": -1.2084174}, "tollerton-west": {"img": "tollerton-west.9cab071374.webp", "bytes": 175212, "w": 2339, "h": 1653, "village": "Tollerton", "district": "Hambleton (West)", "clat": 54.0708056, "clng": -1.2084174}, "topcliffe-north": {"img": "topcliffe-north.5e26c4be04.webp", "bytes": 242298, "w": 2339, "h": 1653, "village": "Topcliffe", "district": "Hambleton (West)", "clat": 54.1781348, "clng": -1.3871054}, "topcliffe-south": {"img": "topcliffe-south.83ac36a747.webp", "bytes": 132682, "w": 2339, "h": 1653, "village": "Topcliffe", "district": "Hambleton (West)", "clat": 54.1781348, "clng": -1.3871054}, "warlaby": {"img": "warlaby.cc0e499e35.webp", "bytes": 77146, "w": 2339, "h": 1653, "village": "Warlaby", "district": "Hambleton (West)", "clat": 54.3181443, "clng": -1.4630816}, "well": {"img": "well.10d7b7523a.webp", "bytes": 239520, "w": 2339, "h": 1653, "village": "Well", "district": "Hambleton (West)", "clat": 54.2318948, "clng": -1.5913607}, "welbury": {"img": "welbury.83098c9537.webp", "bytes": 177952, "w": 1653, "h": 2339, "village": "Welbury", "district": "Hambleton (West)", "clat": 54.4153642, "clng": -1.3866298}, "west-rounton": {"img": "west-rounton.0e930c5bba.webp", "bytes": 175658, "w": 1653, "h": 2339, "village": "West Rounton", "district": "Hambleton (West)", "clat": 54.4249878, "clng": -1.3637833}, "west-tanfield": {"img": "west-tanfield.165da5e876.webp", "bytes": 205752, "w": 2339, "h": 1653, "village": "West Tanfield", "district": "Hambleton (West)", "clat": 54.2060955, "clng": -1.5894526}, "yafforth": {"img": "yafforth.72b88e284a.webp", "bytes": 148612, "w": 2339, "h": 1653, "village": "Yafforth", "district": "Hambleton (West)", "clat": 54.3470918, "clng": -1.4824551}, "youlton": {"img": "youlton.6e5120f8f2.webp", "bytes": 75414, "w": 2339, "h": 1653, "village": "Youlton", "district": "Hambleton (West)", "clat": 54.0653662, "clng": -1.2508958}, "aldborough": {"img": "aldborough.bd1fca5724.webp", "bytes": 214652, "w": 2339, "h": 1653, "village": "Aldborough", "district": "Harrogate", "clat": 54.0911361, "clng": -1.3804879}, "aldfield": {"img": "aldfield.2b97ed8cde.webp", "bytes": 92860, "w": 2339, "h": 1653, "village": "Aldfield", "district": "Harrogate", "clat": 54.119527, "clng": -1.6008924}, "allerton-mauleverer": {"img": "allerton-mauleverer.4a93ccab77.webp", "bytes": 73000, "w": 2339, "h": 1653, "village": "Allerton Mauleverer", "district": "Harrogate", "clat": 54.0162063, "clng": -1.366128}, "angram-harrogate": {"img": "angram-harrogate.fe2f908de9.webp", "bytes": 76794, "w": 2339, "h": 1653, "village": "Angram", "district": "Harrogate", "clat": 53.9311663, "clng": -1.2096078}, "arkendale": {"img": "arkendale.ba10e5cd13.webp", "bytes": 186392, "w": 2339, "h": 1653, "village": "Arkendale", "district": "Harrogate", "clat": 54.0433635, "clng": -1.4075448}, "asenby": {"img": "asenby.8020e2e468.webp", "bytes": 208064, "w": 2339, "h": 1653, "village": "Asenby", "district": "Harrogate", "clat": 54.1728916, "clng": -1.3901406}, "askwith": {"img": "askwith.9e06561afe.webp", "bytes": 167096, "w": 2339, "h": 1653, "village": "Askwith", "district": "Harrogate", "clat": 53.9304395, "clng": -1.7426203}, "baldersby": {"img": "baldersby.1b30a9a91f.webp", "bytes": 206786, "w": 2339, "h": 1653, "village": "Baldersby", "district": "Harrogate", "clat": 54.1968997, "clng": -1.4524141}, "baldersby-st-james": {"img": "baldersby-st-james.2d12a341de.webp", "bytes": 103844, "w": 2339, "h": 1653, "village": "Baldersby St James", "district": "Harrogate", "clat": 54.186884, "clng": -1.4410307}, "beckwithshaw": {"img": "beckwithshaw.4e5b5ce267.webp", "bytes": 125278, "w": 2339, "h": 1653, "village": "Beckwithshaw", "district": "Harrogate", "clat": 53.9735613, "clng": -1.589029}, "bedlam": {"img": "bedlam.029b39ba81.webp", "bytes": 72666, "w": 2339, "h": 1653, "village": "Bedlam", "district": "Harrogate", "clat": 54.0489933, "clng": -1.5925865}, "bewerley": {"img": "bewerley.34895b8dcc.webp", "bytes": 155150, "w": 2339, "h": 1653, "village": "Bewerley", "district": "Harrogate", "clat": 54.0784953, "clng": -1.8025895}, "bickerton": {"img": "bickerton.3b7aca2202.webp", "bytes": 181636, "w": 2339, "h": 1653, "village": "Bickerton", "district": "Harrogate", "clat": 53.9496301, "clng": -1.3147304}, "bilton-in-ainsty": {"img": "bilton-in-ainsty.affb78a827.webp", "bytes": 131332, "w": 2339, "h": 1653, "village": "Bilton in Ainsty", "district": "Harrogate", "clat": 53.9459485, "clng": -1.2762378}, "birstwith": {"img": "birstwith.22dabd42bb.webp", "bytes": 104484, "w": 2339, "h": 1653, "village": "Birstwith", "district": "Harrogate", "clat": 54.0316263, "clng": -1.6316334}, "bishop-monkton-central": {"img": "bishop-monkton-central.1b4112de45.webp", "bytes": 203034, "w": 2339, "h": 1653, "village": "Bishop Monkton", "district": "Harrogate", "clat": 54.0905349, "clng": -1.5011071}, "bishop-monkton-east": {"img": "bishop-monkton-east.bfb9534c10.webp", "bytes": 181824, "w": 2339, "h": 1653, "village": "Bishop Monkton", "district": "Harrogate", "clat": 54.0905349, "clng": -1.5011071}, "bishop-monkton-north": {"img": "bishop-monkton-north.379d3be6bf.webp", "bytes": 127528, "w": 2339, "h": 1653, "village": "Bishop Monkton", "district": "Harrogate", "clat": 54.0905349, "clng": -1.5011071}, "bishop-monkton-west": {"img": "bishop-monkton-west.b526ea6b3c.webp", "bytes": 90622, "w": 2339, "h": 1653, "village": "Bishop Monkton", "district": "Harrogate", "clat": 54.0905349, "clng": -1.5011071}, "bishop-thornton": {"img": "bishop-thornton.f33048e0ce.webp", "bytes": 146570, "w": 2339, "h": 1653, "village": "Bishop Thornton", "district": "Harrogate", "clat": 54.0651188, "clng": -1.6025691}, "bland-hill": {"img": "bland-hill.7a9c089d56.webp", "bytes": 88628, "w": 2339, "h": 1653, "village": "Bland Hill", "district": "Harrogate", "clat": 53.9735219, "clng": -1.6856875}, "blubberhouses": {"img": "blubberhouses.95e9a39b2f.webp", "bytes": 97784, "w": 2339, "h": 1653, "village": "Blubberhouses", "district": "Harrogate", "clat": 53.9889804, "clng": -1.7777242}, "bouthwaite": {"img": "bouthwaite.3ec79319a5.webp", "bytes": 59892, "w": 2339, "h": 1653, "village": "Bouthwaite", "district": "Harrogate", "clat": 54.1368954, "clng": -1.8130884}, "branton-green": {"img": "branton-green.cfc43c8dee.webp", "bytes": 131720, "w": 2339, "h": 1653, "village": "Branton Green", "district": "Harrogate", "clat": null, "clng": null}, "braythorne": {"img": "braythorne.10646118f2.webp", "bytes": 69830, "w": 2339, "h": 1653, "village": "Braythorne", "district": "Harrogate", "clat": 53.9435691, "clng": -1.6231315}, "brearton": {"img": "brearton.4e9ff4c63c.webp", "bytes": 157852, "w": 2339, "h": 1653, "village": "Brearton", "district": "Harrogate", "clat": 54.044574, "clng": -1.5074186}, "bridge-hewick": {"img": "bridge-hewick.5082d6e223.webp", "bytes": 74194, "w": 2339, "h": 1653, "village": "Bridge Hewick", "district": "Harrogate", "clat": 54.1299037, "clng": -1.4848621}, "burnt-yates": {"img": "burnt-yates.e0e0865ca1.webp", "bytes": 147622, "w": 2339, "h": 1653, "village": "Burnt Yates", "district": "Harrogate", "clat": 54.0453486, "clng": -1.6180329}, "burton-leonard-north": {"img": "burton-leonard-north.9b8b5c3cad.webp", "bytes": 193634, "w": 2339, "h": 1653, "village": "Burton Leonard", "district": "Harrogate", "clat": 54.0713128, "clng": -1.4978725}, "burton-leonard-south": {"img": "burton-leonard-south.2da6e1b3b7.webp", "bytes": 181508, "w": 2339, "h": 1653, "village": "Burton Leonard", "district": "Harrogate", "clat": 54.0713128, "clng": -1.4978725}, "castley": {"img": "castley.f5f08fc1f8.webp", "bytes": 100104, "w": 2339, "h": 1653, "village": "Castley", "district": "Harrogate", "clat": 53.9082229, "clng": -1.5948251}, "cattal": {"img": "cattal.87dca04768.webp", "bytes": 129336, "w": 2339, "h": 1653, "village": "Cattal", "district": "Harrogate", "clat": 53.985841, "clng": -1.3271926}, "clifton": {"img": "clifton.ffb9968356.webp", "bytes": 114164, "w": 2339, "h": 1653, "village": "Clifton", "district": "Harrogate", "clat": 53.9301028, "clng": -1.7080544}, "clint": {"img": "clint.af4514f9da.webp", "bytes": 123186, "w": 2339, "h": 1653, "village": "Clint", "district": "Harrogate", "clat": 54.033011, "clng": -1.6005814}, "coneythorpe": {"img": "coneythorpe.8a9ba32be5.webp", "bytes": 96784, "w": 2339, "h": 1653, "village": "Coneythorpe", "district": "Harrogate", "clat": 54.0246389, "clng": -1.4008706}, "copgrove": {"img": "copgrove.9345a32f87.webp", "bytes": 139058, "w": 2339, "h": 1653, "village": "Copgrove", "district": "Harrogate", "clat": 54.0644894, "clng": -1.4746356}, "copt-hewick": {"img": "copt-hewick.84f8be73d2.webp", "bytes": 167092, "w": 2339, "h": 1653, "village": "Copt Hewick", "district": "Harrogate", "clat": 54.1402746, "clng": -1.4782145}, "cowthorpe": {"img": "cowthorpe.ef3a2d0027.webp", "bytes": 121908, "w": 2339, "h": 1653, "village": "Cowthorpe", "district": "Harrogate", "clat": 53.9661279, "clng": -1.3507307}, "cundall": {"img": "cundall.b2f87a75c3.webp", "bytes": 124476, "w": 2339, "h": 1653, "village": "Cundall", "district": "Harrogate", "clat": 54.1477775, "clng": -1.3524627}, "dacre": {"img": "dacre.aaa9209c91.webp", "bytes": 139592, "w": 2339, "h": 1653, "village": "Dacre", "district": "Harrogate", "clat": 54.0435314, "clng": -1.7079637}, "dacre-banks": {"img": "dacre-banks.28787115b4.webp", "bytes": 239552, "w": 1653, "h": 2339, "village": "Dacre Banks", "district": "Harrogate", "clat": 54.0535729, "clng": -1.701331}, "darley": {"img": "darley.db5b444a33.webp", "bytes": 220202, "w": 2339, "h": 1653, "village": "Darley", "district": "Harrogate", "clat": 54.0325192, "clng": -1.6942687}, "darley-head": {"img": "darley-head.07f7f394fb.webp", "bytes": 133792, "w": 2339, "h": 1653, "village": "Darley Head", "district": "Harrogate", "clat": 54.0313099, "clng": -1.701135}, "denton": {"img": "denton.6fa670a585.webp", "bytes": 125626, "w": 2339, "h": 1653, "village": "Denton", "district": "Harrogate", "clat": 53.9367932, "clng": -1.7833462}, "dishforth-north": {"img": "dishforth-north.a9499e3513.webp", "bytes": 180752, "w": 2339, "h": 1653, "village": "Dishforth", "district": "Harrogate", "clat": 54.1455501, "clng": -1.4088868}, "dishforth-south": {"img": "dishforth-south.e36adc7228.webp", "bytes": 204094, "w": 2339, "h": 1653, "village": "Dishforth", "district": "Harrogate", "clat": 54.1455501, "clng": -1.4088868}, "dunkeswick": {"img": "dunkeswick.51cc704bb5.webp", "bytes": 131092, "w": 2339, "h": 1653, "village": "Dunkeswick", "district": "Harrogate", "clat": 53.9178203, "clng": -1.5354967}, "ellingstring": {"img": "ellingstring.53584b5f6e.webp", "bytes": 126472, "w": 2339, "h": 1653, "village": "Ellingstring", "district": "Harrogate", "clat": 54.2493068, "clng": -1.7332412}, "farnham": {"img": "farnham.395c34bdad.webp", "bytes": 163644, "w": 2339, "h": 1653, "village": "Farnham", "district": "Harrogate", "clat": 54.0408064, "clng": -1.4684412}, "farnley": {"img": "farnley.6350924128.webp", "bytes": 98772, "w": 1653, "h": 2339, "village": "Farnley", "district": "Harrogate", "clat": 53.9281369, "clng": -1.674917}, "fearby": {"img": "fearby.53e6e1a674.webp", "bytes": 160170, "w": 2339, "h": 1653, "village": "Fearby", "district": "Harrogate", "clat": 54.225165, "clng": -1.7040763}, "fell-beck": {"img": "fell-beck.38513f8b4b.webp", "bytes": 99806, "w": 2339, "h": 1653, "village": "Fell Beck", "district": "Harrogate", "clat": 54.15976, "clng": -2.3787657}, "ferrensby": {"img": "ferrensby.41eea8b38c.webp", "bytes": 189042, "w": 1653, "h": 2339, "village": "Ferrensby", "district": "Harrogate", "clat": 54.0399541, "clng": -1.4375668}, "fewston": {"img": "fewston.0fe1bc606d.webp", "bytes": 64328, "w": 2339, "h": 1653, "village": "Fewston", "district": "Harrogate", "clat": 53.9839986, "clng": -1.7048693}, "fishpool": {"img": "fishpool.eadac482ac.webp", "bytes": 76570, "w": 2339, "h": 1653, "village": "Fishpool", "district": "Harrogate", "clat": null, "clng": null}, "flaxby": {"img": "flaxby.12ecbe5223.webp", "bytes": 121782, "w": 2339, "h": 1653, "village": "Flaxby", "district": "Harrogate", "clat": 54.0153768, "clng": -1.3977964}, "follifoot": {"img": "follifoot.ad3bce20fe.webp", "bytes": 226164, "w": 1653, "h": 2339, "village": "Follifoot", "district": "Harrogate", "clat": 53.9698889, "clng": -1.4899254}, "galphay": {"img": "galphay.4a5a69070e.webp", "bytes": 193716, "w": 2339, "h": 1653, "village": "Galphay", "district": "Harrogate", "clat": 54.1491242, "clng": -1.6145905}, "glasshouses": {"img": "glasshouses.4377116fe7.webp", "bytes": 239300, "w": 2339, "h": 1653, "village": "Glasshouses", "district": "Harrogate", "clat": 54.0765599, "clng": -1.7376629}, "goldsborough": {"img": "goldsborough.9f257c0c55.webp", "bytes": 234930, "w": 2339, "h": 1653, "village": "Goldsborough", "district": "Harrogate", "clat": 54.0001434, "clng": -1.4195503}, "grafton": {"img": "grafton.57f5791925.webp", "bytes": 183408, "w": 2339, "h": 1653, "village": "Grafton", "district": "Harrogate", "clat": 54.0580335, "clng": -1.3655779}, "great-ouseburn": {"img": "great-ouseburn.9938d4dc71.webp", "bytes": 285418, "w": 2339, "h": 1653, "village": "Great Ouseburn", "district": "Harrogate", "clat": 54.0505546, "clng": -1.3150113}, "green-hammerton-north": {"img": "green-hammerton-north.52f62076b2.webp", "bytes": 203748, "w": 2339, "h": 1653, "village": "Green Hammerton", "district": "Harrogate", "clat": 54.0081379, "clng": -1.2871525}, "green-hammerton-south": {"img": "green-hammerton-south.3154bf2bca.webp", "bytes": 237262, "w": 1653, "h": 2339, "village": "Green Hammerton", "district": "Harrogate", "clat": 54.0081379, "clng": -1.2871525}, "greenhow": {"img": "greenhow.a8506ca44b.webp", "bytes": 142122, "w": 2339, "h": 1653, "village": "Greenhow", "district": "Harrogate", "clat": 54.4498241, "clng": -1.1050234}, "grewelthorpe-east": {"img": "grewelthorpe-east.82237287ee.webp", "bytes": 193346, "w": 1653, "h": 2339, "village": "Grewelthorpe", "district": "Harrogate", "clat": 54.1815512, "clng": -1.6488336}, "grewelthorpe-west": {"img": "grewelthorpe-west.10fd47acbc.webp", "bytes": 228420, "w": 1653, "h": 2339, "village": "Grewelthorpe", "district": "Harrogate", "clat": 54.1815512, "clng": -1.6488336}, "hampsthwaite-hollins": {"img": "hampsthwaite-hollins.d7a2de28c6.webp", "bytes": 120232, "w": 2339, "h": 1653, "village": "Hampsthwaite Hollins", "district": "Harrogate", "clat": 54.0169517, "clng": -1.5959996}, "hampsthwaite-north": {"img": "hampsthwaite-north.a5947b6612.webp", "bytes": 205864, "w": 1653, "h": 2339, "village": "Hampsthwaite", "district": "Harrogate", "clat": 54.0116062, "clng": -1.6034204}, "hampsthwaite-south": {"img": "hampsthwaite-south.a57e1479ce.webp", "bytes": 227664, "w": 2339, "h": 1653, "village": "Hampsthwaite", "district": "Harrogate", "clat": 54.0116062, "clng": -1.6034204}, "healey": {"img": "healey.20996f24fc.webp", "bytes": 97126, "w": 2339, "h": 1653, "village": "Healey", "district": "Harrogate", "clat": 54.2207854, "clng": -1.7233651}, "high-ellington": {"img": "high-ellington.d5f9fbeff4.webp", "bytes": 88832, "w": 2339, "h": 1653, "village": "High Ellington", "district": "Harrogate", "clat": 54.2451892, "clng": -1.7015653}, "high-grantley": {"img": "high-grantley.b81114dd2c.webp", "bytes": 154832, "w": 1653, "h": 2339, "village": "High Grantley", "district": "Harrogate", "clat": 54.1255416, "clng": -1.643673}, "hopperton": {"img": "hopperton.e71c80982f.webp", "bytes": 79028, "w": 1653, "h": 2339, "village": "Hopperton", "district": "Harrogate", "clat": 54.0039041, "clng": -1.3569352}, "hunsingore": {"img": "hunsingore.08b9fef6fc.webp", "bytes": 159812, "w": 2339, "h": 1653, "village": "Hunsingore", "district": "Harrogate", "clat": 53.9756857, "clng": -1.3474176}, "hutton-conyers": {"img": "hutton-conyers.64b4f15ca5.webp", "bytes": 159458, "w": 2339, "h": 1653, "village": "Hutton Conyers", "district": "Harrogate", "clat": 54.1554141, "clng": -1.5031614}, "hutton-wandesley": {"img": "hutton-wandesley.5ceac14363.webp", "bytes": 109894, "w": 2339, "h": 1653, "village": "Hutton Wandesley", "district": "Harrogate", "clat": 53.9479539, "clng": -1.2281394}, "ilton": {"img": "ilton.ea0bd69968.webp", "bytes": 82602, "w": 2339, "h": 1653, "village": "Ilton", "district": "Harrogate", "clat": 54.1982134, "clng": -1.7092605}, "jack-hill": {"img": "jack-hill.803e87c189.webp", "bytes": 47708, "w": 2339, "h": 1653, "village": "Jack Hill", "district": "Harrogate", "clat": 53.9629963, "clng": -1.6990291}, "kettlesing": {"img": "kettlesing.f665627123.webp", "bytes": 85358, "w": 2339, "h": 1653, "village": "Kettlesing", "district": "Harrogate", "clat": 54.0057956, "clng": -1.6592484}, "kettlesing-bottom": {"img": "kettlesing-bottom.d84b5a0d07.webp", "bytes": 134448, "w": 2339, "h": 1653, "village": "Kettlesing Bottom", "district": "Harrogate", "clat": 54.0103527, "clng": -1.6547244}, "killinghall-east": {"img": "killinghall-east.8461a59dee.webp", "bytes": 179756, "w": 1653, "h": 2339, "village": "Killinghall", "district": "Harrogate", "clat": 54.0225442, "clng": -1.5659644}, "killinghall-west": {"img": "killinghall-west.3b17bf3fc2.webp", "bytes": 235198, "w": 1653, "h": 2339, "village": "Killinghall", "district": "Harrogate", "clat": 54.0225442, "clng": -1.5659644}, "kirby-hill-harrogate": {"img": "kirby-hill-harrogate.97ba7f9e04.webp", "bytes": 212862, "w": 1653, "h": 2339, "village": "Kirby Hill", "district": "Harrogate", "clat": 54.4520689, "clng": -1.7903374}, "kirkby-malzeard-north": {"img": "kirkby-malzeard-north.6665ac16cb.webp", "bytes": 217518, "w": 2339, "h": 1653, "village": "Kirkby Malzeard", "district": "Harrogate", "clat": 54.1643909, "clng": -1.6445455}, "kirkby-malzeard-south": {"img": "kirkby-malzeard-south.4b9937f794.webp", "bytes": 229616, "w": 2339, "h": 1653, "village": "Kirkby Malzeard", "district": "Harrogate", "clat": 54.1643909, "clng": -1.6445455}, "kirkby-overblow": {"img": "kirkby-overblow.0e15a51db2.webp", "bytes": 205782, "w": 2339, "h": 1653, "village": "Kirkby Overblow", "district": "Harrogate", "clat": 53.9324322, "clng": -1.5215604}, "kirk-deighton": {"img": "kirk-deighton.0fb1eb9d24.webp", "bytes": 218758, "w": 1653, "h": 2339, "village": "Kirk Deighton", "district": "Harrogate", "clat": 53.9534461, "clng": -1.3692671}, "kirk-hammerton-east": {"img": "kirk-hammerton-east.1ccdbf006a.webp", "bytes": 181922, "w": 2339, "h": 1653, "village": "Kirk Hammerton", "district": "Harrogate", "clat": 53.991421, "clng": -1.2935054}, "kirk-hammerton-west": {"img": "kirk-hammerton-west.580007aca4.webp", "bytes": 156470, "w": 2339, "h": 1653, "village": "Kirk Hammerton", "district": "Harrogate", "clat": 53.991421, "clng": -1.2935054}, "kirk-hammerton-moor": {"img": "kirk-hammerton-moor.bd06c499fe.webp", "bytes": 122826, "w": 2339, "h": 1653, "village": "Kirk Hammerton Moor", "district": "Harrogate", "clat": 53.9971058, "clng": -1.2781314}, "langbar": {"img": "langbar.ea2e9203b7.webp", "bytes": 109644, "w": 2339, "h": 1653, "village": "Langbar", "district": "Harrogate", "clat": 53.9596791, "clng": -1.8624715}, "langthorpe": {"img": "langthorpe.2318b3db30.webp", "bytes": 210538, "w": 2339, "h": 1653, "village": "Langthorpe", "district": "Harrogate", "clat": 54.1007018, "clng": -1.4062438}, "laverton": {"img": "laverton.62728330db.webp", "bytes": 102190, "w": 2339, "h": 1653, "village": "Laverton", "district": "Harrogate", "clat": 54.1550758, "clng": -1.6521104}, "leathley": {"img": "leathley.b9dec92d03.webp", "bytes": 115032, "w": 1653, "h": 2339, "village": "Leathley", "district": "Harrogate", "clat": 53.9185524, "clng": -1.6477363}, "little-ouseburn": {"img": "little-ouseburn.ccf6977611.webp", "bytes": 168058, "w": 2339, "h": 1653, "village": "Little Ouseburn", "district": "Harrogate", "clat": 54.04087, "clng": -1.3170865}, "little-ribston": {"img": "little-ribston.68819d2a36.webp", "bytes": 174826, "w": 1653, "h": 2339, "village": "Little Ribston", "district": "Harrogate", "clat": 53.9756384, "clng": -1.4122154}, "littlethorpe": {"img": "littlethorpe.f42c5f7b90.webp", "bytes": 159784, "w": 2339, "h": 1653, "village": "Littlethorpe", "district": "Harrogate", "clat": 54.1176669, "clng": -1.5063712}, "lofthouse": {"img": "lofthouse.4e00d2421a.webp", "bytes": 149478, "w": 2339, "h": 1653, "village": "Lofthouse", "district": "Harrogate", "clat": 54.1571476, "clng": -1.8455167}, "long-marston-north": {"img": "long-marston-north.e9acb58ed7.webp", "bytes": 157360, "w": 1653, "h": 2339, "village": "Long Marston", "district": "Harrogate", "clat": 53.9544241, "clng": -1.2365961}, "long-marston-south": {"img": "long-marston-south.104760204d.webp", "bytes": 160680, "w": 2339, "h": 1653, "village": "Long Marston", "district": "Harrogate", "clat": 53.9544241, "clng": -1.2365961}, "lower-dunsforth": {"img": "lower-dunsforth.06395fffd0.webp", "bytes": 165486, "w": 2339, "h": 1653, "village": "Lower Dunsforth", "district": "Harrogate", "clat": 54.0767145, "clng": -1.3276543}, "low-grantley": {"img": "low-grantley.1ced079655.webp", "bytes": 80906, "w": 2339, "h": 1653, "village": "Low Grantley", "district": "Harrogate", "clat": 54.1288212, "clng": -1.6376171}, "low-green": {"img": "low-green.a6902cb976.webp", "bytes": 156572, "w": 2339, "h": 1653, "village": "Low Green", "district": "Harrogate", "clat": 54.0299519, "clng": -1.686356}, "maltkiln-hill": {"img": "maltkiln-hill.33d9ff7e6f.webp", "bytes": 115168, "w": 2339, "h": 1653, "village": "Maltkiln Hill", "district": "Harrogate", "clat": null, "clng": null}, "markington": {"img": "markington.20f1d87148.webp", "bytes": 203862, "w": 2339, "h": 1653, "village": "Markington", "district": "Harrogate", "clat": 54.0797928, "clng": -1.5618766}, "marton": {"img": "marton.a0bee928a4.webp", "bytes": 230526, "w": 2339, "h": 1653, "village": "Marton", "district": "Harrogate", "clat": 54.2391536, "clng": -0.8764564}, "marton-le-moor": {"img": "marton-le-moor.66dd6143e7.webp", "bytes": 198384, "w": 1653, "h": 2339, "village": "Marton-le-Moor", "district": "Harrogate", "clat": 54.1301272, "clng": -1.4339974}, "melmerby": {"img": "melmerby.0f38c439e7.webp", "bytes": 249120, "w": 2339, "h": 1653, "village": "Melmerby", "district": "Harrogate", "clat": 54.1834941, "clng": -1.4758243}, "mickley": {"img": "mickley.053c0d8af7.webp", "bytes": 171780, "w": 2339, "h": 1653, "village": "Mickley", "district": "Harrogate", "clat": 54.1875034, "clng": -1.6101705}, "middlesmoor": {"img": "middlesmoor.7b95ee7761.webp", "bytes": 138854, "w": 2339, "h": 1653, "village": "Middlesmoor", "district": "Harrogate", "clat": 54.1635878, "clng": -1.8610047}, "middleton-quernhow": {"img": "middleton-quernhow.2207522e11.webp", "bytes": 93906, "w": 2339, "h": 1653, "village": "Middleton Quernhow", "district": "Harrogate", "clat": 54.2000842, "clng": -1.4877712}, "milby": {"img": "milby.47fb807f32.webp", "bytes": 87536, "w": 2339, "h": 1653, "village": "Milby", "district": "Harrogate", "clat": 54.1037443, "clng": -1.3867535}, "minskip": {"img": "minskip.3977a3632e.webp", "bytes": 206274, "w": 1653, "h": 2339, "village": "Minskip", "district": "Harrogate", "clat": 54.0776433, "clng": -1.4071577}, "moor-monkton": {"img": "moor-monkton.46933da087.webp", "bytes": 147000, "w": 2339, "h": 1653, "village": "Moor Monkton", "district": "Harrogate", "clat": 54.0057485, "clng": -1.2246924}, "nesfield": {"img": "nesfield.1c29db7564.webp", "bytes": 121058, "w": 2339, "h": 1653, "village": "Nesfield", "district": "Harrogate", "clat": 53.9424842, "clng": -1.8593402}, "nidd": {"img": "nidd.c445697874.webp", "bytes": 86582, "w": 2339, "h": 1653, "village": "Nidd", "district": "Harrogate", "clat": 54.0427178, "clng": -1.54175}, "north-deighton": {"img": "north-deighton.ed1a033c40.webp", "bytes": 136180, "w": 2339, "h": 1653, "village": "North Deighton", "district": "Harrogate", "clat": 53.9594858, "clng": -1.4056696}, "north-lees": {"img": "north-lees.242e1a2652.webp", "bytes": 63286, "w": 2339, "h": 1653, "village": "North Lees", "district": "Harrogate", "clat": 54.1602981, "clng": -1.5413474}, "north-rigton": {"img": "north-rigton.27ca006f21.webp", "bytes": 235924, "w": 1653, "h": 2339, "village": "North Rigton", "district": "Harrogate", "clat": 53.9449183, "clng": -1.5713012}, "north-stainley": {"img": "north-stainley.cd6b1f75e9.webp", "bytes": 254082, "w": 1653, "h": 2339, "village": "North Stainley", "district": "Harrogate", "clat": 54.1881933, "clng": -1.5623539}, "norton-le-clay": {"img": "norton-le-clay.6049543205.webp", "bytes": 120034, "w": 2339, "h": 1653, "village": "Norton-le-Clay", "district": "Harrogate", "clat": 54.1342069, "clng": -1.3856466}, "nun-monkton": {"img": "nun-monkton.32622dac5c.webp", "bytes": 172618, "w": 2339, "h": 1653, "village": "Nun Monkton", "district": "Harrogate", "clat": 54.0131358, "clng": -1.2280334}, "nunwick": {"img": "nunwick.72f76d53ee.webp", "bytes": 52014, "w": 2339, "h": 1653, "village": "Nunwick", "district": "Harrogate", "clat": 54.1654938, "clng": -1.5082653}, "padside": {"img": "padside.cb2b91b2c7.webp", "bytes": 89720, "w": 2339, "h": 1653, "village": "Padside", "district": "Harrogate", "clat": 54.0416423, "clng": -1.8015502}, "rainton": {"img": "rainton.a4d36b17de.webp", "bytes": 255568, "w": 2339, "h": 1653, "village": "Rainton", "district": "Harrogate", "clat": 54.1715744, "clng": -1.4343499}, "ramsgill": {"img": "ramsgill.545ee588fc.webp", "bytes": 136574, "w": 2339, "h": 1653, "village": "Ramsgill", "district": "Harrogate", "clat": 54.1350145, "clng": -1.8191884}, "ripley": {"img": "ripley.f944e01705.webp", "bytes": 182636, "w": 2339, "h": 1653, "village": "Ripley", "district": "Harrogate", "clat": 54.0467187, "clng": -1.5647551}, "risplith": {"img": "risplith.610d6276b7.webp", "bytes": 64776, "w": 2339, "h": 1653, "village": "Risplith", "district": "Harrogate", "clat": 54.1141764, "clng": -1.6286886}, "roecliffe": {"img": "roecliffe.4415b7a078.webp", "bytes": 201198, "w": 2339, "h": 1653, "village": "Roecliffe", "district": "Harrogate", "clat": 54.0892015, "clng": -1.4277173}, "sawley": {"img": "sawley.32be1ec699.webp", "bytes": 151684, "w": 1653, "h": 2339, "village": "Sawley", "district": "Harrogate", "clat": 54.1054609, "clng": -1.6211684}, "scotton": {"img": "scotton.8b43ad4b7f.webp", "bytes": 249194, "w": 1653, "h": 2339, "village": "Scotton", "district": "Harrogate", "clat": 54.0301717, "clng": -1.4954116}, "scriven": {"img": "scriven.42534f7197.webp", "bytes": 178072, "w": 2339, "h": 1653, "village": "Scriven", "district": "Harrogate", "clat": 54.0208538, "clng": -1.4699715}, "sharow-north": {"img": "sharow-north.76d8f7d7b4.webp", "bytes": 142842, "w": 2339, "h": 1653, "village": "Sharow", "district": "Harrogate", "clat": 54.1425916, "clng": -1.4988845}, "sharow-south": {"img": "sharow-south.c84c3b1a49.webp", "bytes": 185594, "w": 2339, "h": 1653, "village": "Sharow", "district": "Harrogate", "clat": 54.1425916, "clng": -1.4988845}, "shaw-mills": {"img": "shaw-mills.52251c85cb.webp", "bytes": 176644, "w": 2339, "h": 1653, "village": "Shaw Mills", "district": "Harrogate", "clat": 54.0574345, "clng": -1.6100952}, "sicklinghall": {"img": "sicklinghall.54be4a0717.webp", "bytes": 202246, "w": 2339, "h": 1653, "village": "Sicklinghall", "district": "Harrogate", "clat": 53.9300957, "clng": -1.452355}, "skelton-on-ure": {"img": "skelton-on-ure.436d23e165.webp", "bytes": 216968, "w": 1653, "h": 2339, "village": "Skelton-on-Ure", "district": "Harrogate", "clat": 54.108787, "clng": -1.4483733}, "south-stainley": {"img": "south-stainley.d35666f67b.webp", "bytes": 115358, "w": 2339, "h": 1653, "village": "South Stainley", "district": "Harrogate", "clat": 54.0646266, "clng": -1.5351806}, "stainburn": {"img": "stainburn.28724e75b0.webp", "bytes": 78256, "w": 2339, "h": 1653, "village": "Stainburn", "district": "Harrogate", "clat": 53.9449875, "clng": -1.6229654}, "staveley": {"img": "staveley.05f9939b63.webp", "bytes": 231164, "w": 2339, "h": 1653, "village": "Staveley", "district": "Harrogate", "clat": 54.0584751, "clng": -1.4343388}, "stean": {"img": "stean.ecc5edb2f6.webp", "bytes": 57340, "w": 2339, "h": 1653, "village": "Stean", "district": "Harrogate", "clat": 54.1569624, "clng": -1.8678393}, "studley-roger": {"img": "studley-roger.29f362f6d4.webp", "bytes": 107368, "w": 2339, "h": 1653, "village": "Studley Roger", "district": "Harrogate", "clat": 54.1268949, "clng": -1.5571852}, "summerbridge": {"img": "summerbridge.c51f571e94.webp", "bytes": 249982, "w": 2339, "h": 1653, "village": "Summerbridge", "district": "Harrogate", "clat": 54.0573493, "clng": -1.6929373}, "sutton-grange": {"img": "sutton-grange.e445b94431.webp", "bytes": 66236, "w": 2339, "h": 1653, "village": "Sutton Grange", "district": "Harrogate", "clat": 54.1597167, "clng": -1.5664152}, "swincliffe": {"img": "swincliffe.e8ac0af26a.webp", "bytes": 71632, "w": 2339, "h": 1653, "village": "Swincliffe", "district": "Harrogate", "clat": 54.0186204, "clng": -1.6199414}, "swinton": {"img": "swinton.4b280a5fe7.webp", "bytes": 107784, "w": 2339, "h": 1653, "village": "Swinton", "district": "Harrogate", "clat": 54.1493314, "clng": -0.8393934}, "thornthwaite": {"img": "thornthwaite.997b2dd2db.webp", "bytes": 77574, "w": 2339, "h": 1653, "village": "Thornthwaite", "district": "Harrogate", "clat": 54.0260528, "clng": -1.7334087}, "thorpe-underwood": {"img": "thorpe-underwood.046bc00c80.webp", "bytes": 115290, "w": 2339, "h": 1653, "village": "Thorpe Underwood", "district": "Harrogate", "clat": 54.0245911, "clng": -1.2952539}, "timble": {"img": "timble.724ed06a86.webp", "bytes": 123806, "w": 2339, "h": 1653, "village": "Timble", "district": "Harrogate", "clat": 53.9720733, "clng": -1.7264308}, "tockwith-central": {"img": "tockwith-central.031c0cf50f.webp", "bytes": 172280, "w": 2339, "h": 1653, "village": "Tockwith", "district": "Harrogate", "clat": 53.968003, "clng": -1.3120666}, "tockwith-east": {"img": "tockwith-east.ea57b2c3d8.webp", "bytes": 123052, "w": 2339, "h": 1653, "village": "Tockwith", "district": "Harrogate", "clat": 53.968003, "clng": -1.3120666}, "tockwith-west": {"img": "tockwith-west.8e510fa5b1.webp", "bytes": 251974, "w": 1653, "h": 2339, "village": "Tockwith", "district": "Harrogate", "clat": 53.968003, "clng": -1.3120666}, "upper-dunsforth": {"img": "upper-dunsforth.4fcfbfc121.webp", "bytes": 111850, "w": 2339, "h": 1653, "village": "Upper Dunsforth", "district": "Harrogate", "clat": 54.0619729, "clng": -1.3250311}, "walshford": {"img": "walshford.c474732417.webp", "bytes": 105904, "w": 2339, "h": 1653, "village": "Walshford", "district": "Harrogate", "clat": 53.975102, "clng": -1.3689298}, "warthermarske": {"img": "warthermarske.dda1e75e68.webp", "bytes": 86962, "w": 1653, "h": 2339, "village": "Warthermarske", "district": "Harrogate", "clat": 54.2064696, "clng": -1.6838804}, "wath-nr-pately-bridge": {"img": "wath-nr-pately-bridge.def8e6fb09.webp", "bytes": 101962, "w": 2339, "h": 1653, "village": "Wath", "district": "Harrogate", "clat": 54.1884425, "clng": -1.5045961}, "wath-nr-ripon": {"img": "wath-nr-ripon.ce13ed758b.webp", "bytes": 172898, "w": 2339, "h": 1653, "village": "Wath", "district": "Harrogate", "clat": 54.1884425, "clng": -1.5045961}, "weeton": {"img": "weeton.67d5dbdebc.webp", "bytes": 149744, "w": 2339, "h": 1653, "village": "Weeton", "district": "Harrogate", "clat": 53.916844, "clng": -1.5650796}, "wilsill": {"img": "wilsill.d5994f59ab.webp", "bytes": 110522, "w": 2339, "h": 1653, "village": "Wilsill", "district": "Harrogate", "clat": 54.0773209, "clng": -1.7227572}, "whixley-north": {"img": "whixley-north.1bbabee718.webp", "bytes": 206084, "w": 2339, "h": 1653, "village": "Whixley", "district": "Harrogate", "clat": 54.015348, "clng": -1.3230634}, "whixley-south": {"img": "whixley-south.894f12ba1c.webp", "bytes": 171604, "w": 2339, "h": 1653, "village": "Whixley", "district": "Harrogate", "clat": 54.015348, "clng": -1.3230634}, "wighill": {"img": "wighill.db4bb1bdf8.webp", "bytes": 153082, "w": 2339, "h": 1653, "village": "Wighill", "district": "Harrogate", "clat": 53.9165687, "clng": -1.2780705}, "winksley": {"img": "winksley.9db2948b64.webp", "bytes": 139640, "w": 2339, "h": 1653, "village": "Winksley", "district": "Harrogate", "clat": 54.1365275, "clng": -1.6181022}, "acklam": {"img": "acklam.a1607d98cb.webp", "bytes": 131632, "w": 2339, "h": 1653, "village": "Acklam", "district": "Ryedale (East)", "clat": 54.045221, "clng": -0.8069315}, "allerston": {"img": "allerston.c84d4aa119.webp", "bytes": 199294, "w": 1653, "h": 2339, "village": "Allerston", "district": "Ryedale (East)", "clat": 54.2867071, "clng": -0.6358945}, "barton-hill": {"img": "barton-hill.1607c01615.webp", "bytes": 109018, "w": 2339, "h": 1653, "village": "Barton Hill", "district": "Ryedale (East)", "clat": 54.0714821, "clng": -0.9197144}, "barton-le-willows": {"img": "barton-le-willows.5f390e57dd.webp", "bytes": 182138, "w": 2339, "h": 1653, "village": "Barton-le-Willows", "district": "Ryedale (East)", "clat": 54.0611634, "clng": -0.9109166}, "birdsall": {"img": "birdsall.001cf2f5eb.webp", "bytes": 99542, "w": 2339, "h": 1653, "village": "Birdsall", "district": "Ryedale (East)", "clat": 54.0742016, "clng": -0.7514517}, "burythorpe": {"img": "burythorpe.4dbbe38026.webp", "bytes": 153902, "w": 2339, "h": 1653, "village": "Burythorpe", "district": "Ryedale (East)", "clat": 54.073806, "clng": -0.7929207}, "buttercrambe": {"img": "buttercrambe.110d66ae30.webp", "bytes": 86716, "w": 2339, "h": 1653, "village": "Buttercrambe", "district": "Ryedale (East)", "clat": 54.0159448, "clng": -0.8809974}, "butterwick": {"img": "butterwick.6f41c177f8.webp", "bytes": 108052, "w": 2339, "h": 1653, "village": "Butterwick", "district": "Ryedale (East)", "clat": 54.1284098, "clng": -0.4866446}, "claxton": {"img": "claxton.3ed80c482e.webp", "bytes": 179792, "w": 1653, "h": 2339, "village": "Claxton", "district": "Ryedale (East)", "clat": 54.0319364, "clng": -0.940536}, "crambe": {"img": "crambe.8c1448ed41.webp", "bytes": 105830, "w": 2339, "h": 1653, "village": "Crambe", "district": "Ryedale (East)", "clat": 54.0747533, "clng": -0.8816238}, "crambeck": {"img": "crambeck.19a4436d39.webp", "bytes": 104844, "w": 2339, "h": 1653, "village": "Crambeck", "district": "Ryedale (East)", "clat": 54.0968191, "clng": -0.876346}, "duggleby": {"img": "duggleby.0cc26e3f39.webp", "bytes": 153432, "w": 2339, "h": 1653, "village": "Duggleby", "district": "Ryedale (East)", "clat": 54.0915634, "clng": -0.6599539}, "east-heslerton": {"img": "east-heslerton.cfe2c88a9b.webp", "bytes": 125022, "w": 2339, "h": 1653, "village": "East Heslerton", "district": "Ryedale (East)", "clat": 54.1776114, "clng": -0.5807964}, "east-knapton": {"img": "east-knapton.d68300d8cd.webp", "bytes": 60372, "w": 2339, "h": 1653, "village": "East Knapton", "district": "Ryedale (East)", "clat": 54.172946, "clng": -0.6484945}, "east-lutton": {"img": "east-lutton.bb30bd0d8a.webp", "bytes": 138886, "w": 2339, "h": 1653, "village": "East Lutton", "district": "Ryedale (East)", "clat": 54.1141547, "clng": -0.5600196}, "firby-ryedale-east": {"img": "firby-ryedale-east.700f3581fa.webp", "bytes": 74712, "w": 2339, "h": 1653, "village": "Firby", "district": "Ryedale (East)", "clat": 54.2731978, "clng": -1.5892021}, "foxholes": {"img": "foxholes.a4eff29d34.webp", "bytes": 155346, "w": 2339, "h": 1653, "village": "Foxholes", "district": "Ryedale (East)", "clat": 54.1341065, "clng": -0.469308}, "ganton": {"img": "ganton.ef7455d065.webp", "bytes": 147468, "w": 1653, "h": 2339, "village": "Ganton", "district": "Ryedale (East)", "clat": 54.1778422, "clng": -0.4917451}, "gate-helmsley": {"img": "gate-helmsley.7de96b75fc.webp", "bytes": 204552, "w": 2339, "h": 1653, "village": "Gate Helmsley", "district": "Ryedale (East)", "clat": 53.9893033, "clng": -0.9476017},